市区町丁,総合計,凶悪犯計,凶悪犯強盗,凶悪犯その他,粗暴犯計,粗暴犯凶器準備集合,粗暴犯暴行,粗暴犯傷害,粗暴犯脅迫,粗暴犯恐喝,侵入窃盗計,侵入窃盗金庫破り,侵入窃盗学校荒し,侵入窃盗事務所荒し,侵入窃盗出店荒し,侵入窃盗空き巣,侵入窃盗忍込み,侵入窃盗居空き,侵入窃盗その他,非侵入窃盗計,非侵入窃盗自動車盗,非侵入窃盗オートバイ盗,非侵入窃盗自転車盗,非侵入窃盗車上ねらい,非侵入窃盗自販機ねらい,非侵入窃盗工事場ねらい,非侵入窃盗すり,非侵入窃盗ひったくり,非侵入窃盗置引き,非侵入窃盗万引き,非侵入窃盗その他,その他計,その他詐欺,その他占有離脱物横領,その他その他知能犯,その他賭博,その他その他刑法犯,LocName,lng,lat
千代田区丸の内１丁目,466,0,0,0,64,0,52,10,1,1,1,1,0,0,0,0,0,0,0,318,0,0,6,1,2,0,53,0,41,102,113,83,33,19,7,0,24,東京都/千代田区/丸の内/一丁目,139.7672,35.68156
千代田区丸の内２丁目,51,0,0,0,3,0,0,2,1,0,1,0,0,0,0,0,0,0,1,35,0,0,0,0,0,0,3,0,2,22,8,12,5,3,1,0,3,東京都/千代田区/丸の内/二丁目,139.76344,35.68002
千代田区丸の内３丁目,38,0,0,0,1,0,1,0,0,0,1,0,0,0,1,0,0,0,0,29,0,0,3,1,0,0,1,0,1,10,13,7,3,1,2,0,1,東京都/千代田区/丸の内/三丁目,139.76347,35.67695
千代田区大手町１丁目,79,0,0,0,17,0,15,1,1,0,1,0,0,0,0,0,0,0,1,41,1,1,7,0,0,1,4,0,3,8,16,20,4,3,0,0,13,東京都/千代田区/大手町/一丁目,139.76393,35.68807
千代田区大手町２丁目,25,0,0,0,5,0,5,0,0,0,0,0,0,0,0,0,0,0,0,13,0,0,3,0,0,0,4,0,0,1,5,7,5,0,0,0,2,東京都/千代田区/大手町/二丁目,139.76808,35.6863
千代田区内幸町１丁目,43,1,1,0,2,0,1,1,0,0,0,0,0,0,0,0,0,0,0,25,0,0,0,0,0,0,1,0,2,10,12,15,11,0,0,0,4,東京都/千代田区/内幸町/一丁目,139.75812,35.67084
千代田区内幸町２丁目,1,0,0,0,1,0,1,0,0,0,0,0,0,0,0,0,0,0,0,0,0,0,0,0,0,0,0,0,0,0,0,0,0,0,0,0,0,東京都/千代田区/内幸町/二丁目,139.75418,35.67081
千代田区有楽町１丁目,125,0,0,0,15,0,7,8,0,0,0,0,0,0,0,0,0,0,0,97,0,0,5,0,0,0,7,0,15,34,36,13,7,3,0,0,3,東京都/千代田区/有楽町/一丁目,139.76054,35.67448
千代田区有楽町２丁目,157,1,1,0,9,0,9,0,0,0,1,0,0,0,1,0,0,0,0,129,0,0,3,0,0,0,4,0,6,79,37,17,8,2,2,0,5,東京都/千代田区/有楽町/二丁目,139.76282,35.67389
千代田区霞が関１丁目,27,1,0,1,7,0,3,2,2,0,0,0,0,0,0,0,0,0,0,4,0,0,1,0,0,0,0,0,0,0,3,15,2,0,3,0,10,東京都/千代田区/霞が関/一丁目,139.75256,35.67394
千代田区霞が関２丁目,22,0,0,0,8,0,6,2,0,0,0,0,0,0,0,0,0,0,0,8,0,0,0,1,0,0,3,0,2,0,2,6,0,0,1,0,5,東京都/千代田区/霞が関/二丁目,139.75041,35.67555
千代田区霞が関３丁目,5,0,0,0,0,0,0,0,0,0,0,0,0,0,0,0,0,0,0,3,0,0,0,0,0,0,0,0,0,0,3,2,1,0,1,0,0,東京都/千代田区/霞が関/三丁目,139.74699,35.67183
千代田区永田町１丁目,23,0,0,0,7,0,5,2,0,0,0,0,0,0,0,0,0,0,0,14,0,0,1,0,0,0,5,0,0,0,8,2,0,0,0,0,2,東京都/千代田区/永田町/一丁目,139.74631,35.6759
千代田区永田町２丁目,26,0,0,0,9,0,2,2,4,1,1,1,0,0,0,0,0,0,0,10,0,0,2,0,0,0,5,0,0,0,3,6,1,1,0,0,4,東京都/千代田区/永田町/二丁目,139.74123,35.67505
千代田区隼町,6,0,0,0,0,0,0,0,0,0,0,0,0,0,0,0,0,0,0,4,0,0,0,0,0,0,0,0,1,1,2,2,1,0,0,0,1,東京都/千代田区/隼町,139.74341,35.68131
千代田区平河町１丁目,4,0,0,0,0,0,0,0,0,0,0,0,0,0,0,0,0,0,0,2,0,0,1,0,0,0,0,0,0,0,1,2,0,1,0,0,1,東京都/千代田区/平河町/一丁目,139.73999,35.68258
千代田区平河町２丁目,9,0,0,0,1,0,0,1,0,0,0,0,0,0,0,0,0,0,0,4,0,0,1,1,0,0,0,0,0,0,2,4,3,0,0,0,1,東京都/千代田区/平河町/二丁目,139.7401,35.68037
千代田区麹町１丁目,7,0,0,0,2,0,2,0,0,0,0,0,0,0,0,0,0,0,0,3,0,0,0,0,0,0,0,0,0,0,3,2,1,0,0,0,1,東京都/千代田区/麹町/一丁目,139.74292,35.68445
千代田区麹町２丁目,7,0,0,0,1,0,0,1,0,0,0,0,0,0,0,0,0,0,0,3,0,0,1,0,0,0,1,0,0,0,1,3,2,0,0,0,1,東京都/千代田区/麹町/二丁目,139.74051,35.68449
千代田区麹町３丁目,9,0,0,0,2,0,1,1,0,0,0,0,0,0,0,0,0,0,0,7,0,0,1,2,0,0,0,0,0,4,0,0,0,0,0,0,0,東京都/千代田区/麹町/三丁目,139.73843,35.68451
千代田区麹町４丁目,4,0,0,0,0,0,0,0,0,0,0,0,0,0,0,0,0,0,0,1,0,0,0,0,0,0,0,0,1,0,0,3,2,0,0,0,1,東京都/千代田区/麹町/四丁目,139.73669,35.68364
千代田区麹町５丁目,4,0,0,0,0,0,0,0,0,0,0,0,0,0,0,0,0,0,0,1,0,0,0,0,0,0,0,0,0,0,1,3,2,0,0,0,1,東京都/千代田区/麹町/五丁目,139.73419,35.68368
千代田区麹町６丁目,3,0,0,0,1,0,1,0,0,0,0,0,0,0,0,0,0,0,0,2,0,0,0,0,0,0,0,0,0,0,2,0,0,0,0,0,0,東京都/千代田区/麹町/六丁目,139.73193,35.68491
千代田区紀尾井町,29,0,0,0,5,0,2,2,1,0,2,0,1,0,1,0,0,0,0,14,0,0,0,0,0,0,2,0,0,1,11,8,2,0,2,0,4,東京都/千代田区/紀尾井町,139.73495,35.68141
千代田区一番町,9,0,0,0,1,0,0,1,0,0,0,0,0,0,0,0,0,0,0,2,0,0,0,0,0,0,0,0,0,0,2,6,2,1,0,0,3,東京都/千代田区/一番町,139.74152,35.68735
千代田区二番町,5,1,0,1,0,0,0,0,0,0,0,0,0,0,0,0,0,0,0,1,0,0,0,0,0,0,0,0,0,0,1,3,1,1,0,0,1,東京都/千代田区/二番町,139.73613,35.68618
千代田区三番町,6,0,0,0,0,0,0,0,0,0,0,0,0,0,0,0,0,0,0,1,0,0,0,0,0,0,0,0,0,0,1,5,3,0,1,0,1,東京都/千代田区/三番町,139.74359,35.69056
千代田区四番町,2,0,0,0,0,0,0,0,0,0,1,0,1,0,0,0,0,0,0,0,0,0,0,0,0,0,0,0,0,0,0,1,0,0,0,0,1,東京都/千代田区/四番町,139.73785,35.68906
千代田区五番町,9,0,0,0,0,0,0,0,0,0,0,0,0,0,0,0,0,0,0,7,0,0,1,0,0,0,0,0,1,0,5,2,0,0,1,0,1,東京都/千代田区/五番町,139.73399,35.68969
千代田区六番町,6,0,0,0,1,0,0,1,0,0,2,0,0,0,0,0,0,0,2,3,0,0,2,0,0,0,0,0,0,0,1,0,0,0,0,0,0,東京都/千代田区/六番町,139.7334,35.68749
千代田区皇居外苑,4,0,0,0,1,0,1,0,0,0,0,0,0,0,0,0,0,0,0,2,0,0,0,0,1,0,0,0,0,0,1,1,0,0,0,0,1,東京都/千代田区/皇居外苑,139.75847,35.67994
千代田区日比谷公園,11,0,0,0,3,0,2,1,0,0,0,0,0,0,0,0,0,0,0,5,0,0,1,0,0,0,1,0,0,0,3,3,0,0,0,0,3,東京都/千代田区/日比谷公園,139.7562,35.67389
千代田区北の丸公園,7,0,0,0,1,0,0,0,0,1,0,0,0,0,0,0,0,0,0,3,0,0,0,0,0,0,0,0,0,2,1,3,1,2,0,0,0,東京都/千代田区/北の丸公園,139.75163,35.69156
千代田区九段南１丁目,12,0,0,0,1,0,0,1,0,0,0,0,0,0,0,0,0,0,0,8,0,0,1,0,0,0,2,0,2,1,2,3,1,1,1,0,0,東京都/千代田区/九段南/一丁目,139.75327,35.69397
千代田区九段南２丁目,8,0,0,0,0,0,0,0,0,0,1,0,0,0,1,0,0,0,0,4,0,0,1,0,0,0,0,0,0,1,2,3,1,1,0,0,1,東京都/千代田区/九段南/二丁目,139.7457,35.69314
千代田区九段南３丁目,11,0,0,0,1,0,1,0,0,0,0,0,0,0,0,0,0,0,0,3,0,0,1,0,0,0,0,0,0,1,1,7,2,1,0,0,4,東京都/千代田区/九段南/三丁目,139.74229,35.69243
千代田区九段南４丁目,12,0,0,0,2,0,1,1,0,0,0,0,0,0,0,0,0,0,0,6,0,0,1,1,0,0,0,0,1,1,2,4,1,0,0,0,3,東京都/千代田区/九段南/四丁目,139.73868,35.69125
千代田区九段北１丁目,8,0,0,0,0,0,0,0,0,0,0,0,0,0,0,0,0,0,0,7,0,0,3,0,0,0,1,0,0,1,2,1,1,0,0,0,0,東京都/千代田区/九段北/一丁目,139.75066,35.69666
千代田区九段北２丁目,1,0,0,0,0,0,0,0,0,0,1,0,0,0,0,1,0,0,0,0,0,0,0,0,0,0,0,0,0,0,0,0,0,0,0,0,0,東京都/千代田区/九段北/二丁目,139.74635,35.69526
千代田区九段北３丁目,6,0,0,0,1,0,0,0,1,0,0,0,0,0,0,0,0,0,0,2,0,0,1,0,0,0,0,0,0,0,1,3,0,0,0,0,3,東京都/千代田区/九段北/三丁目,139.74268,35.69417
千代田区九段北４丁目,17,0,0,0,1,0,0,0,0,1,0,0,0,0,0,0,0,0,0,5,0,0,1,0,1,0,1,0,0,2,0,11,10,0,0,0,1,東京都/千代田区/九段北/四丁目,139.73904,35.69315
千代田区富士見１丁目,7,0,0,0,0,0,0,0,0,0,1,0,1,0,0,0,0,0,0,3,0,0,1,0,0,0,0,0,0,0,2,3,2,1,0,0,0,東京都/千代田区/富士見/一丁目,139.74698,35.69787
千代田区富士見２丁目,31,0,0,0,1,0,0,1,0,0,2,0,1,0,1,0,0,0,0,20,0,0,5,1,0,0,0,0,1,1,12,8,2,2,0,0,4,東京都/千代田区/富士見/二丁目,139.74306,35.69813
千代田区飯田橋１丁目,6,0,0,0,0,0,0,0,0,0,4,0,0,3,0,0,0,0,1,2,0,0,1,0,0,0,0,0,0,0,1,0,0,0,0,0,0,東京都/千代田区/飯田橋/一丁目,139.74942,35.69847
千代田区飯田橋２丁目,8,0,0,0,0,0,0,0,0,0,0,0,0,0,0,0,0,0,0,6,0,0,3,0,0,0,0,0,0,0,3,2,2,0,0,0,0,東京都/千代田区/飯田橋/二丁目,139.75056,35.69921
千代田区飯田橋３丁目,14,0,0,0,2,0,1,1,0,0,0,0,0,0,0,0,0,0,0,11,0,1,2,0,0,0,1,0,0,0,7,1,1,0,0,0,0,東京都/千代田区/飯田橋/三丁目,139.74863,35.70139
千代田区飯田橋４丁目,28,0,0,0,5,0,5,0,0,0,2,0,0,0,2,0,0,0,0,16,0,0,5,0,0,0,5,0,2,0,4,5,1,2,0,0,2,東京都/千代田区/飯田橋/四丁目,139.7467,35.70089
千代田区一ツ橋１丁目,5,0,0,0,1,0,0,1,0,0,0,0,0,0,0,0,0,0,0,2,1,0,1,0,0,0,0,0,0,0,0,2,0,0,0,0,2,東京都/千代田区/一ツ橋/一丁目,139.75713,35.69119
千代田区一ツ橋２丁目,3,0,0,0,1,0,0,1,0,0,0,0,0,0,0,0,0,0,0,0,0,0,0,0,0,0,0,0,0,0,0,2,1,1,0,0,0,東京都/千代田区/一ツ橋/二丁目,139.75734,35.69317
千代田区神田神保町１丁目,45,0,0,0,2,0,0,1,1,0,1,0,0,0,1,0,0,0,0,37,0,0,4,0,1,0,0,0,0,27,5,5,3,0,0,0,2,東京都/千代田区/神田神保町/一丁目,139.75908,35.69649
千代田区神田神保町２丁目,32,0,0,0,5,0,1,4,0,0,2,1,0,0,0,1,0,0,0,17,0,0,2,1,1,0,1,0,3,4,5,8,2,1,1,0,4,東京都/千代田区/神田神保町/二丁目,139.75645,35.69664
千代田区神田神保町３丁目,10,0,0,0,3,0,3,0,0,0,1,0,0,1,0,0,0,0,0,4,0,0,1,0,0,0,0,0,0,2,1,2,0,0,0,0,2,東京都/千代田区/神田神保町/三丁目,139.75427,35.69537
千代田区神田三崎町１丁目,2,0,0,0,0,0,0,0,0,0,0,0,0,0,0,0,0,0,0,1,0,0,0,0,0,0,0,0,1,0,0,1,0,1,0,0,0,東京都/千代田区/神田三崎町/一丁目,139.75642,35.7006
千代田区神田三崎町２丁目,37,1,1,0,11,0,10,1,0,0,0,0,0,0,0,0,0,0,0,23,0,0,5,0,0,0,3,0,2,1,12,2,1,0,0,0,1,東京都/千代田区/神田三崎町/二丁目,139.75435,35.70076
千代田区神田三崎町３丁目,12,0,0,0,2,0,1,0,1,0,0,0,0,0,0,0,0,0,0,8,0,0,2,0,0,0,0,0,3,0,3,2,0,0,0,0,2,東京都/千代田区/神田三崎町/三丁目,139.75226,35.70054
千代田区西神田１丁目,2,0,0,0,1,0,0,0,1,0,0,0,0,0,0,0,0,0,0,1,0,0,0,0,1,0,0,0,0,0,0,0,0,0,0,0,0,東京都/千代田区/西神田/一丁目,139.75716,35.69941
千代田区西神田２丁目,6,0,0,0,0,0,0,0,0,0,0,0,0,0,0,0,0,0,0,5,0,0,4,0,0,0,0,0,0,0,1,1,1,0,0,0,0,東京都/千代田区/西神田/二丁目,139.75526,35.6988
千代田区西神田３丁目,4,0,0,0,0,0,0,0,0,0,0,0,0,0,0,0,0,0,0,2,0,0,1,0,0,0,0,0,1,0,0,2,1,1,0,0,0,東京都/千代田区/西神田/三丁目,139.75333,35.69802
千代田区神田猿楽町１丁目,7,0,0,0,0,0,0,0,0,0,2,0,2,0,0,0,0,0,0,2,0,0,1,0,0,0,0,0,0,0,1,3,1,0,1,0,1,東京都/千代田区/神田猿楽町/一丁目,139.76036,35.69844
千代田区神田猿楽町２丁目,3,0,0,0,0,0,0,0,0,0,0,0,0,0,0,0,0,0,0,2,0,0,1,0,0,0,0,0,0,0,1,1,1,0,0,0,0,東京都/千代田区/神田猿楽町/二丁目,139.75923,35.6997
千代田区神田駿河台１丁目,11,0,0,0,0,0,0,0,0,0,0,0,0,0,0,0,0,0,0,10,0,0,1,0,0,0,0,0,0,4,5,1,0,0,0,0,1,東京都/千代田区/神田駿河台/一丁目,139.76244,35.698
千代田区神田駿河台２丁目,40,0,0,0,9,0,6,3,0,0,0,0,0,0,0,0,0,0,0,23,0,0,5,1,0,0,0,0,6,4,7,8,2,1,0,0,5,東京都/千代田区/神田駿河台/二丁目,139.76201,35.70007
千代田区神田駿河台３丁目,16,0,0,0,5,0,2,3,0,0,1,0,0,0,1,0,0,0,0,2,0,0,0,0,0,0,0,0,0,0,2,8,2,3,0,0,3,東京都/千代田区/神田駿河台/三丁目,139.76472,35.69673
千代田区神田駿河台４丁目,15,0,0,0,1,0,0,1,0,0,0,0,0,0,0,0,0,0,0,13,0,0,2,0,0,0,0,0,2,5,4,1,0,1,0,0,0,東京都/千代田区/神田駿河台/四丁目,139.76585,35.69859
千代田区神田錦町１丁目,9,0,0,0,1,0,0,1,0,0,0,0,0,0,0,0,0,0,0,6,0,0,2,0,0,0,0,0,0,2,2,2,2,0,0,0,0,東京都/千代田区/神田錦町/一丁目,139.76416,35.69175
千代田区神田錦町２丁目,4,0,0,0,0,0,0,0,0,0,1,0,0,0,1,0,0,0,0,3,0,0,2,1,0,0,0,0,0,0,0,0,0,0,0,0,0,東京都/千代田区/神田錦町/二丁目,139.76305,35.69199
千代田区神田錦町３丁目,5,0,0,0,0,0,0,0,0,0,0,0,0,0,0,0,0,0,0,4,0,0,1,0,0,0,0,0,0,0,3,1,0,1,0,0,0,東京都/千代田区/神田錦町/三丁目,139.76073,35.69233
千代田区神田小川町１丁目,25,0,0,0,2,0,1,1,0,0,0,0,0,0,0,0,0,0,0,18,0,0,3,0,0,0,0,0,0,9,6,5,1,2,0,0,2,東京都/千代田区/神田小川町/一丁目,139.76642,35.69473
千代田区神田小川町２丁目,18,0,0,0,1,0,1,0,0,0,1,0,0,0,1,0,0,0,0,14,0,0,0,0,0,0,0,0,2,11,1,2,1,0,0,0,1,東京都/千代田区/神田小川町/二丁目,139.76445,35.69469
千代田区神田小川町３丁目,24,0,0,0,2,0,1,1,0,0,0,0,0,0,0,0,0,0,0,19,0,0,4,0,0,0,1,0,2,10,2,3,0,2,0,0,1,東京都/千代田区/神田小川町/三丁目,139.76241,35.6954
千代田区神田美土代町,3,0,0,0,0,0,0,0,0,0,0,0,0,0,0,0,0,0,0,2,0,0,0,0,0,0,0,0,0,0,2,1,1,0,0,0,0,東京都/千代田区/神田美土代町,139.76558,35.69328
千代田区内神田１丁目,12,0,0,0,2,0,2,0,0,0,1,0,0,0,1,0,0,0,0,6,0,0,3,0,0,0,0,0,0,0,3,3,1,0,1,0,1,東京都/千代田区/内神田/一丁目,139.76561,35.69058
千代田区内神田２丁目,15,0,0,0,0,0,0,0,0,0,3,0,0,1,2,0,0,0,0,6,0,0,2,0,0,0,0,0,2,0,2,6,1,2,0,0,3,東京都/千代田区/内神田/二丁目,139.76802,35.6906
千代田区内神田３丁目,41,0,0,0,12,0,6,6,0,0,2,0,0,0,2,0,0,0,0,18,0,0,6,0,0,0,1,0,1,0,10,9,3,0,0,0,6,東京都/千代田区/内神田/三丁目,139.76965,35.69101
千代田区神田司町２丁目,4,0,0,0,0,0,0,0,0,0,0,0,0,0,0,0,0,0,0,1,0,0,1,0,0,0,0,0,0,0,0,3,0,1,0,0,2,東京都/千代田区/神田司町/二丁目,139.76752,35.69346
千代田区神田多町２丁目,12,0,0,0,1,0,0,1,0,0,1,0,0,0,1,0,0,0,0,9,0,0,2,0,3,0,0,0,0,4,0,1,0,1,0,0,0,東京都/千代田区/神田多町/二丁目,139.7692,35.69386
千代田区神田淡路町１丁目,8,0,0,0,2,0,1,0,1,0,3,0,0,1,1,0,0,0,1,1,0,0,1,0,0,0,0,0,0,0,0,2,0,0,0,0,2,東京都/千代田区/神田淡路町/一丁目,139.76703,35.69576
千代田区神田淡路町２丁目,4,0,0,0,0,0,0,0,0,0,0,0,0,0,0,0,0,0,0,2,0,0,0,0,0,0,0,0,0,0,2,2,0,1,0,0,1,東京都/千代田区/神田淡路町/二丁目,139.76784,35.69752
千代田区神田須田町１丁目,31,0,0,0,1,0,1,0,0,0,0,0,0,0,0,0,0,0,0,23,0,0,4,0,0,0,1,0,0,13,5,7,3,2,0,0,2,東京都/千代田区/神田須田町/一丁目,139.76984,35.69622
千代田区神田須田町２丁目,14,0,0,0,1,0,0,1,0,0,1,0,0,0,0,0,0,0,1,8,0,0,4,1,1,0,0,0,0,0,2,4,1,3,0,0,0,東京都/千代田区/神田須田町/二丁目,139.77306,35.69582
千代田区外神田１丁目,334,3,3,0,29,0,22,6,0,1,1,0,0,0,1,0,0,0,0,258,0,0,7,3,1,0,29,0,41,78,99,43,14,12,1,0,16,東京都/千代田区/外神田/一丁目,139.77089,35.69841
千代田区外神田２丁目,11,0,0,0,2,0,2,0,0,0,0,0,0,0,0,0,0,0,0,7,0,0,2,0,0,0,1,0,0,0,4,2,1,0,0,0,1,東京都/千代田区/外神田/二丁目,139.76855,35.70068
千代田区外神田３丁目,67,0,0,0,6,0,4,1,0,1,3,0,0,0,3,0,0,0,0,41,0,0,3,1,0,0,1,0,0,20,16,17,7,3,0,0,7,東京都/千代田区/外神田/三丁目,139.77049,35.70127
千代田区外神田４丁目,133,0,0,0,5,0,3,0,1,1,0,0,0,0,0,0,0,0,0,106,0,0,4,2,0,0,6,0,5,60,29,22,9,2,2,0,9,東京都/千代田区/外神田/四丁目,139.77237,35.70143
千代田区外神田５丁目,12,0,0,0,0,0,0,0,0,0,3,1,0,0,1,0,0,0,1,9,0,0,3,1,1,0,0,0,0,0,4,0,0,0,0,0,0,東京都/千代田区/外神田/五丁目,139.77237,35.70402
千代田区外神田６丁目,25,0,0,0,1,0,0,0,1,0,1,1,0,0,0,0,0,0,0,14,0,0,2,0,1,0,0,0,0,4,7,9,5,3,0,0,1,東京都/千代田区/外神田/六丁目,139.77097,35.70407
千代田区鍛冶町１丁目,19,0,0,0,2,0,0,1,0,1,0,0,0,0,0,0,0,0,0,12,0,0,2,0,1,0,0,0,0,1,8,5,4,0,1,0,0,東京都/千代田区/鍛冶町/一丁目,139.77155,35.6902
千代田区鍛冶町２丁目,81,0,0,0,13,0,10,3,0,0,0,0,0,0,0,0,0,0,0,49,0,1,11,0,0,0,2,1,6,1,27,19,5,4,0,0,10,東京都/千代田区/鍛冶町/二丁目,139.77202,35.69258
千代田区神田鍛冶町３丁目,10,0,0,0,0,0,0,0,0,0,0,0,0,0,0,0,0,0,0,6,0,0,0,0,1,0,3,0,0,2,0,4,1,0,1,0,2,東京都/千代田区/神田鍛冶町/三丁目,139.77098,35.69361
千代田区神田紺屋町,5,0,0,0,0,0,0,0,0,0,0,0,0,0,0,0,0,0,0,3,0,0,0,0,1,0,0,0,0,0,2,2,1,0,0,0,1,東京都/千代田区/神田紺屋町,139.77423,35.69202
千代田区神田富山町,1,1,1,0,0,0,0,0,0,0,0,0,0,0,0,0,0,0,0,0,0,0,0,0,0,0,0,0,0,0,0,0,0,0,0,0,0,東京都/千代田区/神田富山町,139.77359,35.69367
千代田区岩本町１丁目,8,0,0,0,1,0,1,0,0,0,0,0,0,0,0,0,0,0,0,5,0,0,4,0,0,0,0,0,0,0,1,2,1,1,0,0,0,東京都/千代田区/岩本町/一丁目,139.77763,35.69234
千代田区岩本町２丁目,19,0,0,0,1,0,0,1,0,0,2,0,0,2,0,0,0,0,0,13,0,0,9,0,1,0,0,0,0,1,2,3,1,1,1,0,0,東京都/千代田区/岩本町/二丁目,139.77693,35.69353
千代田区岩本町３丁目,14,0,0,0,1,0,1,0,0,0,1,0,0,1,0,0,0,0,0,8,0,0,5,0,0,0,0,0,0,0,3,4,1,3,0,0,0,東京都/千代田区/岩本町/三丁目,139.77693,35.69564
千代田区神田西福田町,2,0,0,0,0,0,0,0,0,0,0,0,0,0,0,0,0,0,0,0,0,0,0,0,0,0,0,0,0,0,0,2,0,1,0,0,1,東京都/千代田区/神田西福田町,139.77425,35.69133
千代田区神田東松下町,4,0,0,0,0,0,0,0,0,0,0,0,0,0,0,0,0,0,0,3,0,0,2,0,0,0,0,0,0,0,1,1,0,1,0,0,0,東京都/千代田区/神田東松下町,139.77357,35.69424
千代田区神田岩本町,12,0,0,0,2,0,0,2,0,0,0,0,0,0,0,0,0,0,0,6,0,0,5,0,0,0,0,0,0,1,0,4,0,3,0,0,1,東京都/千代田区/神田岩本町,139.77501,35.69551
千代田区東神田１丁目,9,0,0,0,0,0,0,0,0,0,2,2,0,0,0,0,0,0,0,7,0,0,7,0,0,0,0,0,0,0,0,0,0,0,0,0,0,東京都/千代田区/東神田/一丁目,139.7805,35.69433
千代田区東神田２丁目,13,0,0,0,0,0,0,0,0,0,0,0,0,0,0,0,0,0,0,5,0,0,3,0,0,0,0,0,0,0,2,8,4,1,0,0,3,東京都/千代田区/東神田/二丁目,139.78015,35.69619
千代田区東神田３丁目,3,0,0,0,0,0,0,0,0,0,0,0,0,0,0,0,0,0,0,3,0,0,2,1,0,0,0,0,0,0,0,0,0,0,0,0,0,東京都/千代田区/東神田/三丁目,139.78137,35.69736
千代田区神田和泉町,27,0,0,0,2,0,2,0,0,0,0,0,0,0,0,0,0,0,0,14,0,0,5,2,0,0,0,0,0,1,6,11,0,3,0,0,8,東京都/千代田区/神田和泉町,139.77791,35.6997
千代田区神田佐久間町１丁目,68,0,0,0,13,0,10,3,0,0,0,0,0,0,0,0,0,0,0,39,0,0,7,0,0,0,5,0,4,11,12,16,5,3,0,0,8,東京都/千代田区/神田佐久間町/一丁目,139.77422,35.69798
千代田区神田佐久間町２丁目,8,0,0,0,1,0,1,0,0,0,0,0,0,0,0,0,0,0,0,4,0,0,0,0,0,0,0,0,0,1,3,3,1,1,0,0,1,東京都/千代田区/神田佐久間町/二丁目,139.77637,35.69801
千代田区神田佐久間町３丁目,17,0,0,0,0,0,0,0,0,0,1,1,0,0,0,0,0,0,0,10,0,0,6,1,0,0,1,1,0,0,1,6,2,0,0,0,4,東京都/千代田区/神田佐久間町/三丁目,139.77794,35.69798
千代田区神田佐久間町４丁目,2,0,0,0,0,0,0,0,0,0,0,0,0,0,0,0,0,0,0,1,0,0,0,0,1,0,0,0,0,0,0,1,0,0,0,0,1,東京都/千代田区/神田佐久間町/四丁目,139.77983,35.69766
千代田区神田平河町,18,0,0,0,1,0,0,1,0,0,0,0,0,0,0,0,0,0,0,16,0,0,4,0,0,0,0,0,1,0,11,1,0,0,0,0,1,東京都/千代田区/神田平河町,139.77565,35.69804
千代田区神田松永町,15,1,0,1,1,0,1,0,0,0,2,0,0,1,1,0,0,0,0,8,0,0,3,1,0,0,0,0,1,0,3,3,2,0,0,0,1,東京都/千代田区/神田松永町,139.7753,35.70031
千代田区神田花岡町,54,0,0,0,3,0,2,1,0,0,0,0,0,0,0,0,0,0,0,44,0,0,11,0,0,0,0,0,2,19,12,7,4,1,2,0,0,東京都/千代田区/神田花岡町,139.77397,35.6988
千代田区神田佐久間河岸,2,0,0,0,0,0,0,0,0,0,1,0,0,0,1,0,0,0,0,1,0,0,1,0,0,0,0,0,0,0,0,0,0,0,0,0,0,東京都/千代田区/神田佐久間河岸,139.7778,35.69705
千代田区神田練塀町,12,0,0,0,0,0,0,0,0,0,0,0,0,0,0,0,0,0,0,5,0,0,1,2,0,0,1,0,0,0,1,7,2,1,0,0,4,東京都/千代田区/神田練塀町,139.77403,35.70071
千代田区神田相生町,13,0,0,0,1,0,1,0,0,0,0,0,0,0,0,0,0,0,0,11,0,0,5,0,0,0,0,0,0,0,6,1,0,1,0,0,0,東京都/千代田区/神田相生町,139.77361,35.69952
中央区銀座１丁目,42,0,0,0,2,0,1,0,1,0,0,0,0,0,0,0,0,0,0,32,0,0,11,3,0,0,0,0,3,4,11,8,1,1,0,0,6,東京都/中央区/銀座/一丁目,139.77029,35.67363
中央区銀座２丁目,62,0,0,0,1,0,1,0,0,0,0,0,0,0,0,0,0,0,0,50,0,0,1,0,2,0,2,0,4,20,21,11,3,1,1,0,6,東京都/中央区/銀座/二丁目,139.76813,35.67291
中央区銀座３丁目,112,1,1,0,5,0,5,0,0,0,2,1,0,0,1,0,0,0,0,87,0,0,4,0,0,0,1,0,1,67,14,17,7,1,3,0,6,東京都/中央区/銀座/三丁目,139.76724,35.67197
中央区銀座４丁目,142,1,0,1,14,0,10,2,1,1,4,0,0,3,1,0,0,0,0,110,0,0,3,1,0,0,6,0,1,73,26,13,4,0,0,0,9,東京都/中央区/銀座/四丁目,139.76625,35.67117
中央区銀座５丁目,75,1,1,0,3,0,2,1,0,0,0,0,0,0,0,0,0,0,0,56,0,0,6,1,0,0,2,0,3,31,13,15,2,3,1,0,9,東京都/中央区/銀座/五丁目,139.76549,35.67011
中央区銀座６丁目,143,4,2,2,7,0,5,2,0,0,1,0,0,0,0,0,0,0,1,125,0,0,2,1,0,0,3,0,3,89,27,6,2,1,0,0,3,東京都/中央区/銀座/六丁目,139.76443,35.66926
中央区銀座７丁目,79,4,0,4,17,0,11,5,1,0,1,0,0,0,1,0,0,0,0,44,0,0,2,0,0,0,3,0,7,7,25,13,1,1,0,0,11,東京都/中央区/銀座/七丁目,139.76338,35.66844
中央区銀座８丁目,98,1,1,0,16,0,11,5,0,0,4,0,0,0,4,0,0,0,0,57,0,0,8,0,0,0,4,1,10,8,26,20,2,2,0,0,16,東京都/中央区/銀座/八丁目,139.76346,35.6667
中央区新富１丁目,12,0,0,0,0,0,0,0,0,0,2,1,0,0,0,0,0,0,1,8,0,0,3,0,0,1,1,0,0,0,3,2,2,0,0,0,0,東京都/中央区/新富/一丁目,139.77414,35.6728
中央区新富２丁目,3,0,0,0,0,0,0,0,0,0,0,0,0,0,0,0,0,0,0,3,0,0,1,2,0,0,0,0,0,0,0,0,0,0,0,0,0,東京都/中央区/新富/二丁目,139.77353,35.67133
中央区入船１丁目,2,0,0,0,0,0,0,0,0,0,0,0,0,0,0,0,0,0,0,1,0,0,0,0,0,0,0,0,1,0,0,1,0,0,0,0,1,東京都/中央区/入船/一丁目,139.77766,35.67331
中央区入船２丁目,2,0,0,0,1,0,0,1,0,0,0,0,0,0,0,0,0,0,0,1,0,0,1,0,0,0,0,0,0,0,0,0,0,0,0,0,0,東京都/中央区/入船/二丁目,139.77693,35.67191
中央区入船３丁目,3,0,0,0,1,0,1,0,0,0,0,0,0,0,0,0,0,0,0,1,0,0,1,0,0,0,0,0,0,0,0,1,0,0,0,0,1,東京都/中央区/入船/三丁目,139.77643,35.67062
中央区湊１丁目,7,0,0,0,0,0,0,0,0,0,0,0,0,0,0,0,0,0,0,4,0,0,1,0,0,0,0,0,0,0,3,3,0,0,0,0,3,東京都/中央区/湊/一丁目,139.77998,35.67272
中央区湊２丁目,3,0,0,0,0,0,0,0,0,0,0,0,0,0,0,0,0,0,0,2,0,0,1,0,0,0,0,0,0,0,1,1,0,0,0,0,1,東京都/中央区/湊/二丁目,139.78046,35.67104
中央区湊３丁目,6,0,0,0,0,0,0,0,0,0,0,0,0,0,0,0,0,0,0,4,0,0,2,0,2,0,0,0,0,0,0,2,1,0,0,0,1,東京都/中央区/湊/三丁目,139.77968,35.66984
中央区明石町,12,0,0,0,0,0,0,0,0,0,0,0,0,0,0,0,0,0,0,9,0,0,2,0,0,0,0,0,0,1,6,3,1,0,0,0,2,東京都/中央区/明石町,139.77769,35.667
中央区築地１丁目,13,0,0,0,3,0,2,1,0,0,1,0,0,1,0,0,0,0,0,4,0,0,3,0,0,0,1,0,0,0,0,5,3,0,1,0,1,東京都/中央区/築地/一丁目,139.77074,35.6693
中央区築地２丁目,19,0,0,0,0,0,0,0,0,0,4,0,0,3,0,0,0,0,1,13,0,0,4,0,0,0,0,0,0,0,9,2,0,1,0,0,1,東京都/中央区/築地/二丁目,139.77237,35.66862
中央区築地３丁目,10,0,0,0,1,0,1,0,0,0,0,0,0,0,0,0,0,0,0,7,0,0,5,0,0,0,1,0,0,0,1,2,0,0,0,0,2,東京都/中央区/築地/三丁目,139.77354,35.66777
中央区築地４丁目,17,0,0,0,1,0,1,0,0,0,0,0,0,0,0,0,0,0,0,13,0,0,1,1,0,0,5,0,0,3,3,3,2,0,0,0,1,東京都/中央区/築地/四丁目,139.76945,35.66629
中央区築地５丁目,9,0,0,0,0,0,0,0,0,0,0,0,0,0,0,0,0,0,0,5,0,0,2,0,0,1,0,0,0,0,2,4,1,1,1,0,1,東京都/中央区/築地/五丁目,139.76788,35.66288
中央区築地６丁目,11,0,0,0,2,0,2,0,0,0,2,0,0,1,0,0,0,0,1,5,0,0,1,0,1,0,0,0,0,1,2,2,0,0,0,0,2,東京都/中央区/築地/六丁目,139.77327,35.66369
中央区築地７丁目,7,0,0,0,0,0,0,0,0,0,0,0,0,0,0,0,0,0,0,5,0,0,1,1,0,0,0,0,0,2,1,2,0,1,0,0,1,東京都/中央区/築地/七丁目,139.7756,35.66502
中央区八丁堀１丁目,5,0,0,0,0,0,0,0,0,0,0,0,0,0,0,0,0,0,0,4,0,0,1,0,2,0,0,1,0,0,0,1,1,0,0,0,0,東京都/中央区/八丁堀/一丁目,139.77682,35.67757
中央区八丁堀２丁目,20,0,0,0,2,0,0,1,1,0,1,0,0,0,1,0,0,0,0,10,0,0,8,0,0,0,0,0,0,1,1,7,2,0,0,0,5,東京都/中央区/八丁堀/二丁目,139.7764,35.67656
中央区八丁堀３丁目,17,0,0,0,4,0,2,2,0,0,1,0,0,0,1,0,0,0,0,8,0,0,5,0,1,1,0,0,0,0,1,4,2,1,0,0,1,東京都/中央区/八丁堀/三丁目,139.77502,35.6756
中央区八丁堀４丁目,9,0,0,0,1,0,1,0,0,0,0,0,0,0,0,0,0,0,0,7,0,0,2,0,0,0,0,0,0,0,5,1,1,0,0,0,0,東京都/中央区/八丁堀/四丁目,139.77647,35.67432
中央区新川１丁目,29,0,0,0,0,0,0,0,0,0,2,0,0,0,2,0,0,0,0,17,0,0,9,0,0,0,0,0,0,1,7,10,6,0,0,0,4,東京都/中央区/新川/一丁目,139.78468,35.67656
中央区新川２丁目,30,0,0,0,0,0,0,0,0,0,0,0,0,0,0,0,0,0,0,22,0,1,13,1,3,1,0,0,0,0,3,8,2,1,1,0,4,東京都/中央区/新川/二丁目,139.78267,35.67436
中央区日本橋本石町３丁目,1,0,0,0,0,0,0,0,0,0,0,0,0,0,0,0,0,0,0,1,0,0,1,0,0,0,0,0,0,0,0,0,0,0,0,0,0,東京都/中央区/日本橋本石町/三丁目,139.77077,35.68753
中央区日本橋本石町４丁目,2,0,0,0,0,0,0,0,0,0,0,0,0,0,0,0,0,0,0,1,0,0,1,0,0,0,0,0,0,0,0,1,0,0,0,0,1,東京都/中央区/日本橋本石町/四丁目,139.77081,35.68858
中央区日本橋室町１丁目,67,0,0,0,2,0,1,1,0,0,0,0,0,0,0,0,0,0,0,63,0,0,2,0,0,0,0,0,2,51,8,2,2,0,0,0,0,東京都/中央区/日本橋室町/一丁目,139.77441,35.6854
中央区日本橋室町２丁目,12,0,0,0,1,0,1,0,0,0,0,0,0,0,0,0,0,0,0,10,0,0,2,0,0,0,1,0,0,1,6,1,0,0,0,0,1,東京都/中央区/日本橋室町/二丁目,139.77377,35.68684
中央区日本橋室町３丁目,5,0,0,0,0,0,0,0,0,0,1,0,0,0,0,0,0,0,1,4,0,0,0,0,0,0,0,1,0,2,1,0,0,0,0,0,0,東京都/中央区/日本橋室町/三丁目,139.77283,35.68797
中央区日本橋室町４丁目,6,0,0,0,2,0,2,0,0,0,0,0,0,0,0,0,0,0,0,4,0,0,1,0,0,0,0,0,0,2,1,0,0,0,0,0,0,東京都/中央区/日本橋室町/四丁目,139.77238,35.68912
中央区日本橋本町１丁目,4,0,0,0,0,0,0,0,0,0,0,0,0,0,0,0,0,0,0,2,0,0,1,0,0,0,0,0,0,0,1,2,0,0,0,0,2,東京都/中央区/日本橋本町/一丁目,139.77687,35.68575
中央区日本橋本町２丁目,2,0,0,0,1,0,1,0,0,0,1,0,0,1,0,0,0,0,0,0,0,0,0,0,0,0,0,0,0,0,0,0,0,0,0,0,0,東京都/中央区/日本橋本町/二丁目,139.7758,35.68785
中央区日本橋本町３丁目,3,0,0,0,0,0,0,0,0,0,0,0,0,0,0,0,0,0,0,3,0,0,1,0,0,0,0,0,0,0,2,0,0,0,0,0,0,東京都/中央区/日本橋本町/三丁目,139.77567,35.6889
中央区日本橋本町４丁目,5,0,0,0,0,0,0,0,0,0,0,0,0,0,0,0,0,0,0,3,0,0,3,0,0,0,0,0,0,0,0,2,0,1,0,0,1,東京都/中央区/日本橋本町/四丁目,139.7751,35.69018
中央区日本橋小網町,10,0,0,0,1,0,0,1,0,0,3,0,0,3,0,0,0,0,0,3,0,0,1,0,0,0,0,0,0,0,2,3,1,0,0,0,2,東京都/中央区/日本橋小網町,139.78072,35.68268
中央区日本橋箱崎町,12,0,0,0,2,0,2,0,0,0,0,0,0,0,0,0,0,0,0,5,0,0,3,0,0,0,0,0,0,0,2,5,2,1,0,0,2,東京都/中央区/日本橋箱崎町,139.78601,35.67992
中央区日本橋馬喰町１丁目,21,0,0,0,0,0,0,0,0,0,1,0,0,0,0,0,0,0,1,14,0,0,7,1,0,0,0,0,2,0,4,6,1,0,1,0,4,東京都/中央区/日本橋馬喰町/一丁目,139.78238,35.69364
中央区日本橋馬喰町２丁目,6,0,0,0,0,0,0,0,0,0,0,0,0,0,0,0,0,0,0,5,0,0,0,1,1,0,0,0,0,0,3,1,0,1,0,0,0,東京都/中央区/日本橋馬喰町/二丁目,139.78375,35.69573
中央区日本橋横山町,23,0,0,0,4,0,3,1,0,0,0,0,0,0,0,0,0,0,0,15,0,0,2,1,0,0,1,0,0,6,5,4,1,0,1,0,2,東京都/中央区/日本橋横山町,139.78358,35.69302
中央区東日本橋１丁目,10,0,0,0,2,0,0,1,1,0,0,0,0,0,0,0,0,0,0,6,0,0,2,0,1,0,0,0,0,0,3,2,2,0,0,0,0,東京都/中央区/東日本橋/一丁目,139.78703,35.69165
中央区東日本橋２丁目,15,0,0,0,0,0,0,0,0,0,0,0,0,0,0,0,0,0,0,9,0,0,6,0,0,0,0,0,0,0,3,6,3,1,0,0,2,東京都/中央区/東日本橋/二丁目,139.78677,35.69349
中央区東日本橋３丁目,19,1,0,1,3,0,1,2,0,0,2,0,0,1,1,0,0,0,0,8,0,0,6,0,0,0,1,0,0,0,1,5,3,0,1,0,1,東京都/中央区/東日本橋/三丁目,139.7836,35.69155
中央区日本橋久松町,11,0,0,0,1,0,1,0,0,0,0,0,0,0,0,0,0,0,0,7,0,0,1,0,0,0,0,0,0,0,6,3,0,0,1,0,2,東京都/中央区/日本橋久松町,139.78421,35.68954
中央区日本橋浜町１丁目,5,0,0,0,1,0,0,1,0,0,1,0,0,0,0,1,0,0,0,3,0,0,1,1,0,0,0,0,0,0,1,0,0,0,0,0,0,東京都/中央区/日本橋浜町/一丁目,139.78738,35.69039
中央区日本橋浜町２丁目,27,0,0,0,1,0,0,1,0,0,2,1,0,0,1,0,0,0,0,20,0,0,12,0,0,0,0,0,1,0,7,4,2,0,1,0,1,東京都/中央区/日本橋浜町/二丁目,139.78818,35.68803
中央区日本橋浜町３丁目,13,0,0,0,1,0,0,1,0,0,0,0,0,0,0,0,0,0,0,7,0,0,4,0,0,0,0,0,0,3,0,5,2,0,0,0,3,東京都/中央区/日本橋浜町/三丁目,139.78947,35.68522
中央区日本橋中洲,5,0,0,0,0,0,0,0,0,0,0,0,0,0,0,0,0,0,0,2,0,0,0,0,0,0,0,0,0,1,1,3,2,0,0,0,1,東京都/中央区/日本橋中洲,139.79117,35.68366
中央区八重洲１丁目,41,0,0,0,3,0,1,2,0,0,1,0,0,0,1,0,0,0,0,24,0,0,6,1,0,0,0,0,1,2,14,13,4,1,2,0,6,東京都/中央区/八重洲/一丁目,139.77092,35.68227
中央区八重洲２丁目,38,0,0,0,3,0,2,1,0,0,0,0,0,0,0,0,0,0,0,29,0,0,3,1,3,0,1,0,0,15,6,6,2,1,1,0,2,東京都/中央区/八重洲/二丁目,139.76825,35.67793
中央区日本橋１丁目,40,1,0,1,10,0,5,5,0,0,0,0,0,0,0,0,0,0,0,16,0,0,4,0,0,0,8,0,0,2,2,13,4,2,0,0,7,東京都/中央区/日本橋/一丁目,139.77534,35.6829
中央区日本橋２丁目,91,0,0,0,3,0,1,0,0,2,0,0,0,0,0,0,0,0,0,67,0,0,4,0,0,0,0,0,1,47,15,21,6,3,6,0,6,東京都/中央区/日本橋/二丁目,139.77426,35.68127
中央区日本橋３丁目,21,0,0,0,1,0,1,0,0,0,1,0,0,0,1,0,0,0,0,17,0,0,3,0,1,0,0,0,2,1,10,2,0,0,0,0,2,東京都/中央区/日本橋/三丁目,139.77374,35.67954
中央区日本橋茅場町１丁目,25,0,0,0,4,0,2,2,0,0,0,0,0,0,0,0,0,0,0,17,0,0,3,0,0,0,5,0,0,1,8,4,0,2,0,0,2,東京都/中央区/日本橋茅場町/一丁目,139.77985,35.68074
中央区日本橋茅場町２丁目,7,0,0,0,0,0,0,0,0,0,1,0,0,0,1,0,0,0,0,5,0,0,2,0,0,0,0,0,0,1,2,1,0,1,0,0,0,東京都/中央区/日本橋茅場町/二丁目,139.77931,35.679
中央区日本橋茅場町３丁目,3,0,0,0,0,0,0,0,0,0,0,0,0,0,0,0,0,0,0,2,0,0,0,0,0,0,0,0,1,0,1,1,0,0,0,0,1,東京都/中央区/日本橋茅場町/三丁目,139.77856,35.67783
中央区佃１丁目,5,0,0,0,1,0,1,0,0,0,0,0,0,0,0,0,0,0,0,3,0,0,1,0,0,0,0,0,0,0,2,1,0,1,0,0,0,東京都/中央区/佃/一丁目,139.78336,35.66887
中央区佃２丁目,27,0,0,0,2,0,2,0,0,0,0,0,0,0,0,0,0,0,0,15,0,0,9,0,0,0,0,0,0,0,6,10,4,0,0,0,6,東京都/中央区/佃/二丁目,139.78659,35.6688
中央区佃３丁目,5,0,0,0,1,0,1,0,0,0,1,0,0,0,0,1,0,0,0,2,0,0,2,0,0,0,0,0,0,0,0,1,1,0,0,0,0,東京都/中央区/佃/三丁目,139.78711,35.66466
中央区月島１丁目,27,1,0,1,5,0,3,2,0,0,0,0,0,0,0,0,0,0,0,12,0,0,3,0,0,0,0,0,0,6,3,9,1,3,0,0,5,東京都/中央区/月島/一丁目,139.78186,35.66515
中央区月島２丁目,9,0,0,0,0,0,0,0,0,0,1,0,0,0,0,1,0,0,0,6,0,0,4,0,0,0,0,0,0,1,1,2,1,0,0,0,1,東京都/中央区/月島/二丁目,139.78477,35.66242
中央区月島３丁目,14,0,0,0,1,0,0,1,0,0,0,0,0,0,0,0,0,0,0,8,0,0,5,1,0,0,0,0,0,1,1,5,2,1,0,0,2,東京都/中央区/月島/三丁目,139.77921,35.6629
中央区月島４丁目,11,0,0,0,3,0,2,0,1,0,0,0,0,0,0,0,0,0,0,2,0,0,2,0,0,0,0,0,0,0,0,6,3,0,1,0,2,東京都/中央区/月島/四丁目,139.78268,35.66044
中央区勝どき１丁目,33,0,0,0,3,0,2,1,0,0,0,0,0,0,0,0,0,0,0,28,0,0,12,0,0,0,0,0,1,11,4,2,1,1,0,0,0,東京都/中央区/勝どき/一丁目,139.77647,35.66071
中央区勝どき２丁目,21,1,1,0,2,0,2,0,0,0,1,0,0,0,1,0,0,0,0,11,0,0,3,1,0,0,1,0,1,0,5,6,2,0,1,0,3,東京都/中央区/勝どき/二丁目,139.77907,35.65811
中央区勝どき３丁目,14,0,0,0,3,0,3,0,0,0,0,0,0,0,0,0,0,0,0,8,0,0,5,0,0,0,0,0,0,1,2,3,0,0,0,0,3,東京都/中央区/勝どき/三丁目,139.77397,35.65946
中央区勝どき４丁目,7,0,0,0,0,0,0,0,0,0,0,0,0,0,0,0,0,0,0,6,0,0,3,0,0,0,0,0,0,0,3,1,0,0,0,0,1,東京都/中央区/勝どき/四丁目,139.77644,35.65665
中央区勝どき５丁目,12,0,0,0,2,0,2,0,0,0,0,0,0,0,0,0,0,0,0,8,0,1,5,0,0,0,0,0,0,1,1,2,0,1,0,0,1,東京都/中央区/勝どき/五丁目,139.77103,35.65718
中央区勝どき６丁目,18,0,0,0,1,0,1,0,0,0,0,0,0,0,0,0,0,0,0,12,0,0,5,0,0,0,0,0,0,0,7,5,2,2,0,0,1,東京都/中央区/勝どき/六丁目,139.77367,35.65477
中央区晴海１丁目,24,0,0,0,4,0,4,0,0,0,0,0,0,0,0,0,0,0,0,14,0,0,4,2,0,0,0,0,0,3,5,6,0,0,0,0,6,東京都/中央区/晴海/一丁目,139.78616,35.65952
中央区晴海２丁目,7,0,0,0,1,0,0,0,1,0,0,0,0,0,0,0,0,0,0,4,0,0,3,0,0,0,0,0,0,0,1,2,2,0,0,0,0,東京都/中央区/晴海/二丁目,139.78583,35.65539
中央区晴海３丁目,22,1,0,1,5,0,3,1,1,0,0,0,0,0,0,0,0,0,0,11,0,0,3,0,0,0,0,0,0,3,5,5,0,2,0,0,3,東京都/中央区/晴海/三丁目,139.77898,35.65504
中央区晴海４丁目,4,0,0,0,0,0,0,0,0,0,0,0,0,0,0,0,0,0,0,2,0,0,1,0,0,0,0,0,1,0,0,2,1,0,0,0,1,東京都/中央区/晴海/四丁目,139.78145,35.65231
中央区晴海５丁目,3,0,0,0,1,0,1,0,0,0,0,0,0,0,0,0,0,0,0,2,0,0,0,0,0,1,0,0,0,0,1,0,0,0,0,0,0,東京都/中央区/晴海/五丁目,139.77505,35.64951
中央区豊海町,3,0,0,0,1,0,0,0,1,0,0,0,0,0,0,0,0,0,0,1,0,1,0,0,0,0,0,0,0,0,0,1,0,0,0,0,1,東京都/中央区/豊海町,139.76917,35.6536
中央区日本橋人形町１丁目,15,0,0,0,0,0,0,0,0,0,1,0,0,0,1,0,0,0,0,8,0,0,5,0,0,0,0,0,0,0,3,6,1,1,0,0,4,東京都/中央区/日本橋人形町/一丁目,139.7822,35.68483
中央区日本橋人形町２丁目,32,0,0,0,1,0,1,0,0,0,2,0,0,0,2,0,0,0,0,20,0,0,9,0,1,0,0,0,1,3,6,9,5,0,1,0,3,東京都/中央区/日本橋人形町/二丁目,139.78474,35.68614
中央区日本橋人形町３丁目,20,0,0,0,3,0,0,3,0,0,1,0,0,0,1,0,0,0,0,13,0,0,1,0,1,0,1,0,2,0,8,3,0,1,0,0,2,東京都/中央区/日本橋人形町/三丁目,139.78154,35.68665
中央区日本橋蛎殻町１丁目,22,0,0,0,0,0,0,0,0,0,2,0,0,1,1,0,0,0,0,18,0,0,3,0,0,0,0,0,0,11,4,2,0,0,0,0,2,東京都/中央区/日本橋蛎殻町/一丁目,139.78368,35.6826
中央区日本橋蛎殻町２丁目,17,0,0,0,4,0,3,1,0,0,1,0,0,0,1,0,0,0,0,6,0,0,2,0,0,1,0,0,0,1,2,6,3,0,1,0,2,東京都/中央区/日本橋蛎殻町/二丁目,139.7865,35.68344
中央区京橋１丁目,18,0,0,0,0,0,0,0,0,0,0,0,0,0,0,0,0,0,0,14,0,0,5,0,1,0,0,0,1,1,6,4,2,1,0,0,1,東京都/中央区/京橋/一丁目,139.77217,35.67815
中央区京橋２丁目,19,0,0,0,1,0,0,1,0,0,0,0,0,0,0,0,0,0,0,9,0,0,3,0,0,0,0,0,1,0,5,9,4,2,1,0,2,東京都/中央区/京橋/二丁目,139.77122,35.67665
中央区京橋３丁目,20,1,0,1,2,0,1,0,1,0,1,0,0,0,0,1,0,0,0,13,0,0,2,0,0,0,0,0,0,9,2,3,3,0,0,0,0,東京都/中央区/京橋/三丁目,139.7699,35.6754
中央区日本橋小伝馬町,16,0,0,0,1,0,0,0,1,0,0,0,0,0,0,0,0,0,0,9,0,0,2,2,0,0,0,0,0,4,1,6,4,1,0,0,1,東京都/中央区/日本橋小伝馬町,139.7787,35.69146
中央区日本橋大伝馬町,3,0,0,0,0,0,0,0,0,0,0,0,0,0,0,0,0,0,0,3,0,0,3,0,0,0,0,0,0,0,0,0,0,0,0,0,0,東京都/中央区/日本橋大伝馬町,139.77966,35.69025
中央区日本橋小舟町,14,0,0,0,1,0,1,0,0,0,2,0,0,0,1,1,0,0,0,9,0,0,4,0,1,0,0,0,1,0,3,2,1,0,0,0,1,東京都/中央区/日本橋小舟町,139.77827,35.68686
中央区日本橋堀留町１丁目,5,0,0,0,0,0,0,0,0,0,0,0,0,0,0,0,0,0,0,4,0,0,3,0,0,0,0,0,0,0,1,1,1,0,0,0,0,東京都/中央区/日本橋堀留町/一丁目,139.77989,35.68793
中央区日本橋堀留町２丁目,5,0,0,0,1,0,0,1,0,0,1,0,0,0,1,0,0,0,0,2,0,0,0,0,0,0,0,0,0,0,2,1,1,0,0,0,0,東京都/中央区/日本橋堀留町/二丁目,139.78119,35.68858
中央区日本橋富沢町,8,0,0,0,1,0,1,0,0,0,0,0,0,0,0,0,0,0,0,4,0,0,1,1,0,0,0,0,0,0,2,3,2,0,1,0,0,東京都/中央区/日本橋富沢町,139.78265,35.68895
中央区日本橋兜町,7,0,0,0,1,0,0,1,0,0,0,0,0,0,0,0,0,0,0,3,0,0,1,0,0,0,0,0,0,0,2,3,0,0,0,0,3,東京都/中央区/日本橋兜町,139.77768,35.68108
港区虎ノ門１丁目,33,0,0,0,3,0,0,3,0,0,1,1,0,0,0,0,0,0,0,24,0,0,3,0,0,1,7,0,0,2,11,5,2,0,0,0,3,東京都/港区/虎ノ門/一丁目,139.74966,35.66836
港区虎ノ門２丁目,8,0,0,0,0,0,0,0,0,0,0,0,0,0,0,0,0,0,0,6,0,0,2,0,0,0,0,0,0,0,4,2,0,0,0,0,2,東京都/港区/虎ノ門/二丁目,139.74619,35.66849
港区虎ノ門３丁目,13,0,0,0,2,0,1,1,0,0,1,0,0,0,0,1,0,0,0,7,0,0,3,1,0,0,0,0,0,0,3,3,0,0,1,0,2,東京都/港区/虎ノ門/三丁目,139.74707,35.66431
港区虎ノ門４丁目,12,1,1,0,0,0,0,0,0,0,0,0,0,0,0,0,0,0,0,10,0,0,1,0,0,0,0,0,0,7,2,1,1,0,0,0,0,東京都/港区/虎ノ門/四丁目,139.74431,35.66489
港区虎ノ門５丁目,12,0,0,0,1,0,1,0,0,0,0,0,0,0,0,0,0,0,0,7,0,0,0,1,0,0,4,0,0,0,2,4,1,2,0,0,1,東京都/港区/虎ノ門/五丁目,139.74338,35.66253
港区台場１丁目,55,0,0,0,3,0,2,1,0,0,0,0,0,0,0,0,0,0,0,32,0,0,4,2,0,0,5,0,2,10,9,20,2,8,0,0,10,東京都/港区/台場/一丁目,139.77794,35.63073
港区台場２丁目,23,0,0,0,4,0,4,0,0,0,1,0,0,0,0,0,0,0,1,12,0,0,4,0,0,0,1,0,0,0,7,6,2,0,0,0,4,東京都/港区/台場/二丁目,139.77591,35.62722
港区愛宕２丁目,4,0,0,0,0,0,0,0,0,0,0,0,0,0,0,0,0,0,0,3,0,0,0,0,0,0,0,0,0,1,2,1,1,0,0,0,0,東京都/港区/愛宕/二丁目,139.74821,35.66285
港区芝１丁目,12,0,0,0,0,0,0,0,0,0,0,0,0,0,0,0,0,0,0,7,0,0,5,0,0,0,0,0,0,1,1,5,1,2,0,0,2,東京都/港区/芝/一丁目,139.75478,35.65098
港区芝２丁目,21,0,0,0,5,0,3,2,0,0,0,0,0,0,0,0,0,0,0,12,0,0,9,0,0,0,0,0,0,0,3,4,2,0,0,0,2,東京都/港区/芝/二丁目,139.75169,35.65134
港区芝３丁目,30,0,0,0,8,0,6,2,0,0,0,0,0,0,0,0,0,0,0,14,0,0,8,0,0,0,0,0,0,1,5,8,3,1,1,0,3,東京都/港区/芝/三丁目,139.7473,35.65233
港区芝４丁目,18,0,0,0,2,0,2,0,0,0,1,0,0,1,0,0,0,0,0,6,0,0,3,0,0,0,0,0,0,1,2,9,4,1,0,0,4,東京都/港区/芝/四丁目,139.75085,35.64829
港区芝５丁目,142,2,2,0,19,0,13,5,1,0,2,1,0,0,0,0,0,0,1,103,0,1,22,2,0,0,19,0,11,9,39,16,9,2,0,0,5,東京都/港区/芝/五丁目,139.74667,35.64713
港区芝浦１丁目,17,0,0,0,1,0,0,1,0,0,0,0,0,0,0,0,0,0,0,14,0,0,3,2,0,0,0,0,0,0,9,2,0,0,0,0,2,東京都/港区/芝浦/一丁目,139.75545,35.64874
港区芝浦２丁目,15,1,1,0,2,0,1,0,0,1,0,0,0,0,0,0,0,0,0,8,0,0,3,0,0,0,0,0,0,2,3,4,1,1,0,0,2,東京都/港区/芝浦/二丁目,139.75383,35.64431
港区芝浦３丁目,39,2,2,0,5,0,5,0,0,0,1,0,0,0,1,0,0,0,0,25,0,0,5,0,0,1,0,0,0,11,8,6,1,1,0,0,4,東京都/港区/芝浦/三丁目,139.74783,35.64397
港区芝浦４丁目,42,0,0,0,4,0,1,3,0,0,2,0,0,0,0,1,0,0,1,20,1,0,14,1,0,0,0,0,1,1,2,16,5,1,0,0,10,東京都/港区/芝浦/四丁目,139.74712,35.63975
港区海岸１丁目,45,1,0,1,12,0,7,5,0,0,0,0,0,0,0,0,0,0,0,27,0,0,1,0,0,0,8,0,8,1,9,5,1,0,0,0,4,東京都/港区/海岸/一丁目,139.76167,35.65538
港区海岸２丁目,2,0,0,0,0,0,0,0,0,0,0,0,0,0,0,0,0,0,0,1,0,0,1,0,0,0,0,0,0,0,0,1,0,0,0,0,1,東京都/港区/海岸/二丁目,139.75888,35.64912
港区海岸３丁目,37,1,0,1,5,0,1,2,2,0,0,0,0,0,0,0,0,0,0,22,0,0,11,1,0,0,1,1,0,6,2,9,3,0,0,0,6,東京都/港区/海岸/三丁目,139.75688,35.64081
港区東新橋１丁目,40,0,0,0,3,0,2,1,0,0,0,0,0,0,0,0,0,0,0,26,0,0,7,1,0,0,2,0,0,6,10,11,5,5,0,0,1,東京都/港区/東新橋/一丁目,139.76057,35.66312
港区東新橋２丁目,9,1,0,1,0,0,0,0,0,0,0,0,0,0,0,0,0,0,0,8,0,1,4,0,0,0,2,0,0,0,1,0,0,0,0,0,0,東京都/港区/東新橋/二丁目,139.75757,35.66196
港区新橋１丁目,37,0,0,0,3,0,2,0,1,0,0,0,0,0,0,0,0,0,0,25,0,1,1,0,0,0,0,1,2,4,16,9,4,1,0,0,4,東京都/港区/新橋/一丁目,139.75818,35.66793
港区新橋２丁目,194,1,1,0,40,0,24,16,0,0,1,1,0,0,0,0,0,0,0,117,0,0,6,2,0,0,15,0,13,14,67,35,8,9,2,0,16,東京都/港区/新橋/二丁目,139.7571,35.66686
港区新橋３丁目,101,0,0,0,20,0,12,7,0,1,5,0,0,0,5,0,0,0,0,58,0,1,7,2,0,0,5,0,6,3,34,18,4,2,0,0,12,東京都/港区/新橋/三丁目,139.75603,35.66558
港区新橋４丁目,25,1,0,1,5,0,3,2,0,0,1,1,0,0,0,0,0,0,0,15,0,0,3,0,0,0,2,1,0,0,9,3,1,0,0,0,2,東京都/港区/新橋/四丁目,139.75594,35.66437
港区新橋５丁目,13,0,0,0,1,0,0,1,0,0,1,0,0,0,1,0,0,0,0,10,0,0,4,1,0,0,0,0,0,3,2,1,1,0,0,0,0,東京都/港区/新橋/五丁目,139.755,35.66309
港区新橋６丁目,14,0,0,0,0,0,0,0,0,0,0,0,0,0,0,0,0,0,0,8,0,0,5,0,0,1,0,0,0,0,2,6,1,0,1,0,4,東京都/港区/新橋/六丁目,139.754,35.66156
港区西新橋１丁目,20,0,0,0,2,0,2,0,0,0,0,0,0,0,0,0,0,0,0,8,0,0,3,0,1,1,0,0,1,1,1,10,8,1,0,0,1,東京都/港区/西新橋/一丁目,139.75319,35.66873
港区西新橋２丁目,11,0,0,0,1,0,0,1,0,0,0,0,0,0,0,0,0,0,0,8,0,0,3,0,0,0,0,0,0,1,4,2,1,0,0,0,1,東京都/港区/西新橋/二丁目,139.75208,35.66623
港区西新橋３丁目,31,0,0,0,5,0,1,3,1,0,1,0,0,0,0,0,0,0,1,16,0,0,3,0,0,2,0,0,0,0,11,9,4,2,0,0,3,東京都/港区/西新橋/三丁目,139.75107,35.66331
港区三田１丁目,20,0,0,0,5,0,3,0,1,1,0,0,0,0,0,0,0,0,0,13,0,0,4,2,0,0,0,0,0,2,5,2,0,0,0,0,2,東京都/港区/三田/一丁目,139.74133,35.65381
港区三田２丁目,17,1,0,1,3,0,2,1,0,0,1,0,0,0,0,0,0,0,1,7,0,1,3,0,0,0,0,0,0,1,2,5,2,0,0,0,3,東京都/港区/三田/二丁目,139.74121,35.64989
港区三田３丁目,17,0,0,0,0,0,0,0,0,0,0,0,0,0,0,0,0,0,0,8,0,0,6,0,0,0,0,0,0,0,2,9,1,4,0,0,4,東京都/港区/三田/三丁目,139.74289,35.644
港区三田４丁目,18,0,0,0,0,0,0,0,0,0,1,0,0,0,1,0,0,0,0,14,0,0,4,1,0,0,0,0,0,5,4,3,1,0,0,0,2,東京都/港区/三田/四丁目,139.73906,35.64398
港区三田５丁目,34,0,0,0,4,0,1,2,1,0,0,0,0,0,0,0,0,0,0,19,0,0,6,0,0,0,0,0,0,6,7,11,2,1,0,0,8,東京都/港区/三田/五丁目,139.73781,35.64622
港区浜松町１丁目,31,1,0,1,2,0,1,1,0,0,1,0,0,1,0,0,0,0,0,13,0,0,4,0,0,0,1,0,1,2,5,14,5,3,0,0,6,東京都/港区/浜松町/一丁目,139.75655,35.65857
港区浜松町２丁目,34,0,0,0,5,0,5,0,0,0,0,0,0,0,0,0,0,0,0,23,0,0,4,0,0,0,3,0,0,1,15,6,1,2,0,0,3,東京都/港区/浜松町/二丁目,139.75598,35.65486
港区芝大門１丁目,10,0,0,0,1,0,0,0,1,0,1,1,0,0,0,0,0,0,0,2,0,0,1,0,0,0,0,0,0,0,1,6,2,2,0,0,2,東京都/港区/芝大門/一丁目,139.75372,35.65859
港区芝大門２丁目,14,1,1,0,3,0,2,1,0,0,1,1,0,0,0,0,0,0,0,5,0,0,3,1,0,0,0,0,0,0,1,4,1,1,0,0,2,東京都/港区/芝大門/二丁目,139.75345,35.65506
港区芝公園１丁目,4,0,0,0,1,0,0,0,0,1,0,0,0,0,0,0,0,0,0,2,0,0,1,0,0,0,0,0,0,0,1,1,0,0,1,0,0,東京都/港区/芝公園/一丁目,139.75142,35.65893
港区芝公園２丁目,9,0,0,0,3,0,2,1,0,0,0,0,0,0,0,0,0,0,0,5,0,0,2,0,0,1,1,0,0,1,0,1,0,1,0,0,0,東京都/港区/芝公園/二丁目,139.75124,35.65513
港区芝公園３丁目,15,0,0,0,0,0,0,0,0,0,1,1,0,0,0,0,0,0,0,9,0,0,1,0,0,0,0,0,0,1,7,5,3,0,0,0,2,東京都/港区/芝公園/三丁目,139.74721,35.65994
港区芝公園４丁目,15,0,0,0,2,0,1,1,0,0,0,0,0,0,0,0,0,0,0,9,0,0,2,0,0,0,2,0,0,1,4,4,1,2,0,0,1,東京都/港区/芝公園/四丁目,139.74763,35.65646
港区東麻布１丁目,13,0,0,0,0,0,0,0,0,0,0,0,0,0,0,0,0,0,0,10,0,0,5,0,0,1,0,0,0,0,4,3,1,0,0,0,2,東京都/港区/東麻布/一丁目,139.74377,35.6567
港区東麻布２丁目,11,0,0,0,2,0,1,1,0,0,2,0,0,0,0,2,0,0,0,4,0,0,1,0,0,0,0,0,0,0,3,3,0,0,0,0,3,東京都/港区/東麻布/二丁目,139.74086,35.65677
港区東麻布３丁目,11,1,1,0,1,0,0,1,0,0,1,0,0,0,0,1,0,0,0,7,0,0,6,0,0,0,0,0,0,0,1,1,0,0,0,0,1,東京都/港区/東麻布/三丁目,139.73802,35.65669
港区麻布永坂町,1,0,0,0,0,0,0,0,0,0,0,0,0,0,0,0,0,0,0,0,0,0,0,0,0,0,0,0,0,0,0,1,0,0,0,0,1,東京都/港区/麻布永坂町,139.73766,35.65868
港区麻布十番１丁目,29,1,1,0,7,0,2,4,0,1,0,0,0,0,0,0,0,0,0,11,0,0,3,0,0,0,1,0,0,4,3,10,3,0,1,0,6,東京都/港区/麻布十番/一丁目,139.73509,35.65667
港区麻布十番２丁目,44,1,0,1,4,0,3,1,0,0,2,0,0,0,1,1,0,0,0,20,0,0,6,0,0,0,0,0,0,10,4,17,5,2,1,0,9,東京都/港区/麻布十番/二丁目,139.7356,35.65513
港区麻布十番３丁目,28,2,1,1,2,0,2,0,0,0,1,0,0,0,0,0,1,0,0,19,0,1,7,1,0,0,0,0,0,7,3,4,0,0,0,0,4,東京都/港区/麻布十番/三丁目,139.7354,35.65322
港区麻布十番４丁目,12,0,0,0,3,0,2,0,1,0,1,0,0,1,0,0,0,0,0,4,0,0,1,0,0,0,2,0,0,0,1,4,0,0,0,0,4,東京都/港区/麻布十番/四丁目,139.73723,35.65401
港区南麻布１丁目,15,1,0,1,1,0,0,1,0,0,0,0,0,0,0,0,0,0,0,4,0,0,4,0,0,0,0,0,0,0,0,9,2,0,0,0,7,東京都/港区/南麻布/一丁目,139.73438,35.65089
港区南麻布２丁目,19,0,0,0,0,0,0,0,0,0,1,0,0,0,1,0,0,0,0,15,0,0,9,0,0,0,0,1,0,0,5,3,1,0,0,0,2,東京都/港区/南麻布/二丁目,139.73524,35.64841
港区南麻布３丁目,14,0,0,0,2,0,1,1,0,0,0,0,0,0,0,0,0,0,0,7,0,0,5,0,0,0,0,0,0,1,1,5,2,0,0,0,3,東京都/港区/南麻布/三丁目,139.73021,35.64955
港区南麻布４丁目,23,0,0,0,3,0,2,1,0,0,0,0,0,0,0,0,0,0,0,16,0,0,6,0,0,0,0,0,0,2,8,4,0,1,0,0,3,東京都/港区/南麻布/四丁目,139.72572,35.6489
港区南麻布５丁目,33,0,0,0,1,0,0,1,0,0,3,1,0,0,0,2,0,0,0,16,0,0,10,0,0,0,0,0,1,1,4,13,3,2,0,0,8,東京都/港区/南麻布/五丁目,139.72453,35.6534
港区元麻布１丁目,4,0,0,0,0,0,0,0,0,0,1,0,0,0,0,1,0,0,0,3,0,0,3,0,0,0,0,0,0,0,0,0,0,0,0,0,0,東京都/港区/元麻布/一丁目,139.73268,35.65404
港区元麻布２丁目,8,0,0,0,0,0,0,0,0,0,2,0,0,0,0,2,0,0,0,5,0,0,1,0,1,0,0,0,0,2,1,1,0,0,0,0,1,東京都/港区/元麻布/二丁目,139.72896,35.65385
港区元麻布３丁目,9,0,0,0,2,0,1,0,1,0,4,0,0,2,1,0,1,0,0,3,0,0,3,0,0,0,0,0,0,0,0,0,0,0,0,0,0,東京都/港区/元麻布/三丁目,139.7299,35.65684
港区西麻布１丁目,35,0,0,0,8,0,4,3,0,1,1,0,0,0,1,0,0,0,0,13,0,0,2,0,0,0,1,0,0,1,9,13,3,0,0,0,10,東京都/港区/西麻布/一丁目,139.72536,35.66122
港区西麻布２丁目,34,1,0,1,6,0,4,2,0,0,9,0,0,0,8,1,0,0,0,11,0,0,7,0,0,0,0,0,0,0,4,7,0,1,0,0,6,東京都/港区/西麻布/二丁目,139.72029,35.6619
港区西麻布３丁目,24,2,1,1,1,0,1,0,0,0,0,0,0,0,0,0,0,0,0,13,0,0,8,0,0,0,0,1,0,2,2,8,0,0,0,0,8,東京都/港区/西麻布/三丁目,139.72554,35.65791
港区西麻布４丁目,19,1,0,1,2,0,0,1,1,0,1,0,0,1,0,0,0,0,0,8,0,0,3,0,0,0,0,1,0,0,4,7,0,0,2,0,5,東京都/港区/西麻布/四丁目,139.7211,35.65768
港区六本木１丁目,21,0,0,0,4,0,3,0,0,1,0,0,0,0,0,0,0,0,0,10,0,0,4,0,0,0,1,0,1,0,4,7,4,0,1,0,2,東京都/港区/六本木/一丁目,139.7408,35.66506
港区六本木２丁目,8,0,0,0,1,0,0,0,0,1,0,0,0,0,0,0,0,0,0,3,0,0,0,0,0,0,0,0,0,0,3,4,3,0,0,0,1,東京都/港区/六本木/二丁目,139.73715,35.66706
港区六本木３丁目,148,6,4,2,34,0,20,12,1,1,2,0,0,0,1,1,0,0,0,74,0,0,8,0,0,0,9,0,3,12,42,32,3,3,0,0,26,東京都/港区/六本木/三丁目,139.73642,35.66429
港区六本木４丁目,38,1,1,0,7,0,2,4,0,1,5,0,0,0,4,0,0,0,1,17,0,0,2,1,0,0,1,0,1,3,9,8,0,1,0,0,7,東京都/港区/六本木/四丁目,139.73421,35.66526
港区六本木５丁目,51,3,1,2,13,0,5,7,0,1,0,0,0,0,0,0,0,0,0,25,0,0,6,0,0,0,1,0,3,2,13,10,2,1,1,0,6,東京都/港区/六本木/五丁目,139.73479,35.66013
港区六本木６丁目,119,0,0,0,8,0,4,3,0,1,2,0,0,0,1,0,0,0,1,83,0,1,12,1,0,0,7,0,6,27,29,26,6,1,0,0,19,東京都/港区/六本木/六丁目,139.73027,35.66033
港区六本木７丁目,85,0,0,0,16,0,10,5,1,0,3,2,0,0,1,0,0,0,0,42,0,1,10,1,0,0,1,0,2,9,18,24,4,1,1,0,18,東京都/港区/六本木/七丁目,139.72769,35.66423
港区麻布台１丁目,1,0,0,0,0,0,0,0,0,0,0,0,0,0,0,0,0,0,0,1,0,0,1,0,0,0,0,0,0,0,0,0,0,0,0,0,0,東京都/港区/麻布台/一丁目,139.74022,35.6614
港区麻布台２丁目,3,0,0,0,1,0,0,1,0,0,0,0,0,0,0,0,0,0,0,1,0,0,0,0,0,0,0,0,0,0,1,1,0,0,0,0,1,東京都/港区/麻布台/二丁目,139.74181,35.65881
港区麻布台３丁目,6,0,0,0,0,0,0,0,0,0,0,0,0,0,0,0,0,0,0,2,0,0,1,1,0,0,0,0,0,0,0,4,1,0,0,0,3,東京都/港区/麻布台/三丁目,139.73866,35.6603
港区元赤坂１丁目,4,0,0,0,0,0,0,0,0,0,0,0,0,0,0,0,0,0,0,4,0,0,2,0,0,0,0,0,0,0,2,0,0,0,0,0,0,東京都/港区/元赤坂/一丁目,139.73386,35.67741
港区元赤坂２丁目,3,0,0,0,0,0,0,0,0,0,0,0,0,0,0,0,0,0,0,1,0,0,0,0,0,0,0,0,0,0,1,2,0,0,0,0,2,東京都/港区/元赤坂/二丁目,139.72693,35.67674
港区赤坂１丁目,29,0,0,0,3,0,1,2,0,0,5,0,0,0,0,0,0,0,5,15,0,0,0,0,0,0,0,0,0,7,8,6,2,0,1,0,3,東京都/港区/赤坂/一丁目,139.74234,35.66859
港区赤坂２丁目,48,0,0,0,10,0,7,2,1,0,3,0,0,3,0,0,0,0,0,19,0,0,4,0,0,0,1,0,1,1,12,16,4,1,0,0,11,東京都/港区/赤坂/二丁目,139.74023,35.67104
港区赤坂３丁目,101,2,1,1,28,0,16,11,0,1,3,0,0,0,3,0,0,0,0,55,0,0,6,2,0,0,11,0,2,12,22,13,5,2,0,0,6,東京都/港区/赤坂/三丁目,139.73714,35.67564
港区赤坂４丁目,14,0,0,0,3,0,2,0,0,1,1,0,0,0,0,0,0,0,1,8,0,0,2,0,0,0,1,0,0,1,4,2,1,0,0,0,1,東京都/港区/赤坂/四丁目,139.73358,35.67483
港区赤坂５丁目,17,0,0,0,3,0,1,1,0,1,1,0,0,0,1,0,0,0,0,11,0,0,4,0,0,0,1,0,0,2,4,2,1,0,0,0,1,東京都/港区/赤坂/五丁目,139.73427,35.67221
港区赤坂６丁目,15,0,0,0,3,0,2,0,0,1,1,0,0,0,0,0,1,0,0,8,0,0,1,0,0,0,0,1,0,0,6,3,1,0,0,0,2,東京都/港区/赤坂/六丁目,139.73546,35.66938
港区赤坂７丁目,11,0,0,0,1,0,0,1,0,0,0,0,0,0,0,0,0,0,0,6,0,0,6,0,0,0,0,0,0,0,0,4,1,0,0,0,3,東京都/港区/赤坂/七丁目,139.73082,35.67188
港区赤坂８丁目,17,0,0,0,3,0,3,0,0,0,1,0,0,0,0,1,0,0,0,5,0,0,1,0,0,0,0,0,0,0,4,8,2,0,0,0,6,東京都/港区/赤坂/八丁目,139.7282,35.67074
港区赤坂９丁目,66,2,2,0,6,0,1,3,2,0,1,0,0,0,1,0,0,0,0,47,0,0,3,1,0,0,0,0,1,34,8,10,3,0,0,0,7,東京都/港区/赤坂/九丁目,139.73055,35.66678
港区南青山１丁目,23,0,0,0,3,0,2,1,0,0,0,0,0,0,0,0,0,0,0,12,0,0,3,0,0,0,3,0,1,0,5,8,3,1,0,0,4,東京都/港区/南青山/一丁目,139.72523,35.66969
港区南青山２丁目,37,0,0,0,0,0,0,0,0,0,2,0,0,1,0,0,0,0,1,20,0,0,10,1,0,2,1,0,0,0,6,15,2,0,0,0,13,東京都/港区/南青山/二丁目,139.72188,35.66731
港区南青山３丁目,23,0,0,0,1,0,0,1,0,0,1,0,0,0,0,0,0,0,1,14,0,0,4,1,0,0,0,0,1,5,3,7,3,0,0,0,4,東京都/港区/南青山/三丁目,139.71533,35.66649
港区南青山４丁目,26,0,0,0,3,0,0,2,1,0,6,0,0,1,1,2,0,1,1,11,0,0,6,0,0,0,0,1,0,1,3,6,2,0,0,0,4,東京都/港区/南青山/四丁目,139.718,35.66485
港区南青山５丁目,37,0,0,0,1,0,1,0,0,0,0,0,0,0,0,0,0,0,0,34,0,0,5,0,0,0,0,0,2,20,7,2,1,0,0,0,1,東京都/港区/南青山/五丁目,139.71326,35.66241
港区南青山６丁目,10,0,0,0,1,0,0,0,0,1,1,0,0,0,0,1,0,0,0,3,0,0,2,0,0,0,0,0,1,0,0,5,1,1,0,0,3,東京都/港区/南青山/六丁目,139.71602,35.66085
港区南青山７丁目,9,0,0,0,1,0,1,0,0,0,1,0,0,0,1,0,0,0,0,6,0,0,3,0,0,0,0,1,0,2,0,1,1,0,0,0,0,東京都/港区/南青山/七丁目,139.71614,35.65794
港区北青山１丁目,21,1,1,0,2,0,2,0,0,0,0,0,0,0,0,0,0,0,0,14,0,0,1,0,0,0,4,0,0,1,8,4,1,1,0,0,2,東京都/港区/北青山/一丁目,139.72095,35.67538
港区北青山２丁目,15,0,0,0,3,0,1,1,1,0,0,0,0,0,0,0,0,0,0,9,0,0,3,0,0,0,2,0,0,0,4,3,1,0,0,0,2,東京都/港区/北青山/二丁目,139.71776,35.67193
港区北青山３丁目,47,0,0,0,8,0,6,2,0,0,0,0,0,0,0,0,0,0,0,34,0,0,8,0,1,0,6,0,1,14,4,5,2,0,0,0,3,東京都/港区/北青山/三丁目,139.7121,35.66618
港区高輪１丁目,32,0,0,0,5,0,1,3,0,1,3,0,0,0,0,2,0,0,1,14,0,0,8,0,0,0,0,0,0,1,5,10,2,3,0,0,5,東京都/港区/高輪/一丁目,139.73517,35.64056
港区高輪２丁目,34,0,0,0,3,0,1,2,0,0,4,0,0,0,1,1,0,0,2,12,0,0,7,0,0,0,1,0,0,1,3,15,6,3,0,0,6,東京都/港区/高輪/二丁目,139.73688,35.63742
港区高輪３丁目,327,2,2,0,37,0,21,15,0,1,2,0,0,0,0,0,0,0,2,246,1,0,5,0,0,0,32,0,19,19,170,40,9,12,1,0,18,東京都/港区/高輪/三丁目,139.73434,35.63181
港区高輪４丁目,44,1,1,0,3,0,1,1,1,0,1,0,0,0,0,1,0,0,0,36,0,0,2,0,0,0,2,0,1,10,21,3,0,0,0,0,3,東京都/港区/高輪/四丁目,139.7345,35.6266
港区白金１丁目,26,0,0,0,2,0,1,1,0,0,1,0,0,0,0,1,0,0,0,17,0,0,7,1,0,0,0,0,0,3,6,6,1,1,0,0,4,東京都/港区/白金/一丁目,139.73341,35.64508
港区白金２丁目,6,1,0,1,2,0,1,0,1,0,0,0,0,0,0,0,0,0,0,1,0,0,0,0,0,0,0,0,0,0,1,2,1,0,0,0,1,東京都/港区/白金/二丁目,139.73108,35.64143
港区白金３丁目,21,0,0,0,0,0,0,0,0,0,1,0,0,1,0,0,0,0,0,16,0,0,9,2,0,0,0,1,0,1,3,4,3,0,0,0,1,東京都/港区/白金/三丁目,139.7298,35.64546
港区白金４丁目,2,0,0,0,0,0,0,0,0,0,0,0,0,0,0,0,0,0,0,2,0,0,1,1,0,0,0,0,0,0,0,0,0,0,0,0,0,東京都/港区/白金/四丁目,139.72722,35.64228
港区白金５丁目,21,1,0,1,0,0,0,0,0,0,0,0,0,0,0,0,0,0,0,14,0,0,10,0,0,0,0,0,0,0,4,6,3,0,0,0,3,東京都/港区/白金/五丁目,139.72551,35.64568
港区白金６丁目,7,0,0,0,1,0,0,1,0,0,1,0,0,0,1,0,0,0,0,2,0,0,1,0,0,0,0,0,0,0,1,3,2,0,0,0,1,東京都/港区/白金/六丁目,139.72322,35.64292
港区白金台１丁目,9,0,0,0,0,0,0,0,0,0,0,0,0,0,0,0,0,0,0,8,0,0,1,0,0,0,0,0,0,2,5,1,1,0,0,0,0,東京都/港区/白金台/一丁目,139.72989,35.63863
港区白金台２丁目,7,0,0,0,1,0,0,1,0,0,0,0,0,0,0,0,0,0,0,1,0,0,0,0,0,0,0,0,0,0,1,5,3,0,0,0,2,東京都/港区/白金台/二丁目,139.72882,35.63371
港区白金台３丁目,16,0,0,0,1,0,1,0,0,0,0,0,0,0,0,0,0,0,0,7,0,0,3,0,0,0,0,0,0,1,3,8,3,1,0,0,4,東京都/港区/白金台/三丁目,139.7253,35.63607
港区白金台４丁目,18,0,0,0,0,0,0,0,0,0,0,0,0,0,0,0,0,0,0,12,0,0,5,0,0,0,2,0,0,1,4,6,2,0,0,0,4,東京都/港区/白金台/四丁目,139.72542,35.63939
港区白金台５丁目,10,0,0,0,0,0,0,0,0,0,0,0,0,0,0,0,0,0,0,6,0,0,2,0,0,0,0,0,1,1,2,4,0,1,0,0,3,東京都/港区/白金台/五丁目,139.71977,35.63901
港区港南１丁目,20,0,0,0,3,0,0,3,0,0,0,0,0,0,0,0,0,0,0,12,0,0,0,0,0,0,0,0,0,7,5,5,1,3,0,0,1,東京都/港区/港南/一丁目,139.74522,35.634
港区港南２丁目,82,0,0,0,12,0,9,3,0,0,0,0,0,0,0,0,0,0,0,54,0,0,8,1,0,0,2,0,2,16,25,16,6,5,2,0,3,東京都/港区/港南/二丁目,139.7397,35.63093
港区港南３丁目,8,0,0,0,0,0,0,0,0,0,0,0,0,0,0,0,0,0,0,6,0,0,6,0,0,0,0,0,0,0,0,2,1,1,0,0,0,東京都/港区/港南/三丁目,139.75067,35.63369
港区港南４丁目,25,0,0,0,3,0,2,1,0,0,0,0,0,0,0,0,0,0,0,16,0,0,10,0,0,0,0,0,0,0,6,6,2,0,0,0,4,東京都/港区/港南/四丁目,139.74931,35.6274
港区港南５丁目,6,0,0,0,1,0,0,1,0,0,1,0,0,0,0,0,0,0,1,4,0,0,1,0,0,0,0,0,0,0,3,0,0,0,0,0,0,東京都/港区/港南/五丁目,139.75616,35.62903
港区以下不詳,1,0,0,0,0,0,0,0,0,0,0,0,0,0,0,0,0,0,0,0,0,0,0,0,0,0,0,0,0,0,0,1,0,0,0,0,1,東京都/港区,139.75156,35.6585
新宿区四谷１丁目,63,0,0,0,9,0,7,2,0,0,2,0,0,0,2,0,0,0,0,40,0,0,18,2,0,0,10,0,3,1,6,12,5,1,1,0,5,東京都/新宿区/四谷/一丁目,139.72881,35.68591
新宿区四谷２丁目,14,0,0,0,1,0,0,1,0,0,1,0,0,0,1,0,0,0,0,7,0,0,2,0,0,0,0,0,0,0,5,5,2,2,0,0,1,東京都/新宿区/四谷/二丁目,139.72568,35.6871
新宿区四谷３丁目,40,0,0,0,1,0,0,1,0,0,1,0,0,0,0,1,0,0,0,33,0,0,21,0,0,0,3,0,0,3,6,5,1,0,0,0,4,東京都/新宿区/四谷/三丁目,139.72075,35.68802
新宿区四谷４丁目,28,0,0,0,4,0,1,3,0,0,0,0,0,0,0,0,0,0,0,15,0,0,11,1,0,0,0,0,0,0,3,9,4,0,0,0,5,東京都/新宿区/四谷/四丁目,139.71626,35.68858
新宿区三栄町,1,0,0,0,0,0,0,0,0,0,0,0,0,0,0,0,0,0,0,1,0,0,0,0,1,0,0,0,0,0,0,0,0,0,0,0,0,東京都/新宿区/三栄町,139.72374,35.68842
新宿区若葉１丁目,35,0,0,0,0,0,0,0,0,0,28,0,0,7,1,9,8,3,0,2,0,0,1,0,0,0,0,0,0,0,1,5,3,0,0,0,2,東京都/新宿区/若葉/一丁目,139.72655,35.68427
新宿区若葉２丁目,5,0,0,0,0,0,0,0,0,0,0,0,0,0,0,0,0,0,0,3,0,0,1,0,0,0,0,0,0,1,1,2,1,0,0,0,1,東京都/新宿区/若葉/二丁目,139.72478,35.68496
新宿区若葉３丁目,8,0,0,0,0,0,0,0,0,0,3,0,0,0,1,0,2,0,0,2,0,0,2,0,0,0,0,0,0,0,0,3,1,0,0,0,2,東京都/新宿区/若葉/三丁目,139.7243,35.68262
新宿区須賀町,1,0,0,0,1,0,0,1,0,0,0,0,0,0,0,0,0,0,0,0,0,0,0,0,0,0,0,0,0,0,0,0,0,0,0,0,0,東京都/新宿区/須賀町,139.72212,35.68524
新宿区左門町,10,0,0,0,1,0,1,0,0,0,0,0,0,0,0,0,0,0,0,7,0,0,2,1,0,0,0,0,0,0,4,2,0,0,0,0,2,東京都/新宿区/左門町,139.7205,35.6859
新宿区信濃町,18,0,0,0,1,0,0,1,0,0,1,0,0,0,1,0,0,0,0,11,0,0,2,0,0,0,0,0,1,0,8,5,2,0,0,0,3,東京都/新宿区/信濃町,139.71979,35.68227
新宿区南元町,15,0,0,0,0,0,0,0,0,0,8,0,0,0,0,0,8,0,0,4,0,0,2,0,0,0,0,0,0,0,2,3,1,1,1,0,0,東京都/新宿区/南元町,139.72401,35.68065
新宿区荒木町,14,0,0,0,2,0,0,2,0,0,2,0,0,0,2,0,0,0,0,3,0,0,1,0,0,0,0,0,1,0,1,7,3,0,0,0,4,東京都/新宿区/荒木町,139.72304,35.69007
新宿区舟町,4,0,0,0,1,0,0,1,0,0,0,0,0,0,0,0,0,0,0,1,0,0,1,0,0,0,0,0,0,0,0,2,0,1,0,0,1,東京都/新宿区/舟町,139.72112,35.69007
新宿区愛住町,9,0,0,0,0,0,0,0,0,0,4,0,0,0,3,0,1,0,0,1,0,0,1,0,0,0,0,0,0,0,0,4,0,1,0,0,3,東京都/新宿区/愛住町,139.71919,35.69003
新宿区大京町,14,2,1,1,0,0,0,0,0,0,1,0,0,0,0,1,0,0,0,7,0,0,3,0,0,0,0,0,0,0,4,4,2,0,1,0,1,東京都/新宿区/大京町,139.71704,35.68385
新宿区霞ヶ丘町,17,0,0,0,5,0,4,1,0,0,1,0,0,0,0,0,0,0,1,9,0,0,0,0,0,0,0,0,0,0,9,2,0,0,0,0,2,東京都/新宿区/霞ヶ丘町,139.71629,35.67707
新宿区内藤町,13,0,0,0,1,0,1,0,0,0,1,0,0,0,1,0,0,0,0,5,0,0,3,0,0,0,0,1,0,0,1,6,2,1,1,0,2,東京都/新宿区/内藤町,139.71162,35.6857
新宿区片町,3,0,0,0,0,0,0,0,0,0,0,0,0,0,0,0,0,0,0,1,0,0,0,1,0,0,0,0,0,0,0,2,0,1,0,0,1,東京都/新宿区/片町,139.72447,35.69229
新宿区新宿１丁目,85,1,0,1,9,0,5,2,1,1,2,0,0,0,1,1,0,0,0,50,0,0,32,2,1,0,0,0,0,2,13,23,6,4,3,0,10,東京都/新宿区/新宿/一丁目,139.71225,35.68956
新宿区新宿２丁目,138,2,1,1,16,0,12,4,0,0,8,0,0,5,2,0,0,0,1,84,0,0,20,2,1,0,8,0,3,3,47,28,1,5,1,0,21,東京都/新宿区/新宿/二丁目,139.70839,35.69006
新宿区新宿３丁目,1098,9,5,4,100,0,76,20,1,3,18,4,0,1,9,0,0,0,4,837,0,2,49,10,2,0,60,4,50,490,170,134,48,15,13,0,58,東京都/新宿区/新宿/三丁目,139.70357,35.69123
新宿区新宿４丁目,64,1,0,1,3,0,2,1,0,0,1,0,0,0,0,1,0,0,0,47,0,0,5,1,0,0,3,0,8,15,15,12,2,5,2,0,3,東京都/新宿区/新宿/四丁目,139.70372,35.68884
新宿区新宿５丁目,87,2,1,1,7,0,6,1,0,0,0,0,0,0,0,0,0,0,0,59,0,0,20,0,0,0,2,0,5,9,23,19,1,3,2,0,13,東京都/新宿区/新宿/五丁目,139.70787,35.69317
新宿区新宿６丁目,90,2,1,1,9,0,5,2,2,0,2,0,0,0,0,1,0,0,1,59,0,2,31,2,2,0,0,0,0,10,12,18,4,1,0,0,13,東京都/新宿区/新宿/六丁目,139.70979,35.69537
新宿区新宿７丁目,49,1,1,0,6,0,4,1,1,0,3,0,0,1,0,2,0,0,0,27,0,0,15,0,2,0,0,0,0,4,6,12,0,2,0,0,10,東京都/新宿区/新宿/七丁目,139.71077,35.69953
新宿区市谷田町１丁目,7,0,0,0,1,0,1,0,0,0,0,0,0,0,0,0,0,0,0,4,0,0,4,0,0,0,0,0,0,0,0,2,1,1,0,0,0,東京都/新宿区/市谷田町/一丁目,139.73631,35.69292
新宿区市谷田町２丁目,5,0,0,0,0,0,0,0,0,0,0,0,0,0,0,0,0,0,0,3,0,0,0,0,0,0,0,0,0,3,0,2,1,0,0,0,1,東京都/新宿区/市谷田町/二丁目,139.73747,35.6947
新宿区市谷田町３丁目,5,0,0,0,0,0,0,0,0,0,1,0,0,0,0,1,0,0,0,2,0,0,0,0,0,0,0,0,0,0,2,2,1,0,0,0,1,東京都/新宿区/市谷田町/三丁目,139.73888,35.69637
新宿区市谷本村町,7,0,0,0,0,0,0,0,0,0,1,0,0,1,0,0,0,0,0,2,0,0,2,0,0,0,0,0,0,0,0,4,0,0,0,0,4,東京都/新宿区/市谷本村町,139.72932,35.69254
新宿区市谷砂土原町１丁目,5,0,0,0,0,0,0,0,0,0,0,0,0,0,0,0,0,0,0,2,0,0,1,0,0,0,0,0,0,0,1,3,0,0,0,0,3,東京都/新宿区/市谷砂土原町/一丁目,139.73538,35.69469
新宿区市谷砂土原町２丁目,2,0,0,0,0,0,0,0,0,0,0,0,0,0,0,0,0,0,0,0,0,0,0,0,0,0,0,0,0,0,0,2,0,0,1,0,1,東京都/新宿区/市谷砂土原町/二丁目,139.73549,35.69563
新宿区市谷砂土原町３丁目,4,0,0,0,0,0,0,0,0,0,1,0,0,0,0,1,0,0,0,3,0,0,1,0,0,0,0,0,0,0,2,0,0,0,0,0,0,東京都/新宿区/市谷砂土原町/三丁目,139.73669,35.69684
新宿区市谷加賀町１丁目,1,0,0,0,0,0,0,0,0,0,0,0,0,0,0,0,0,0,0,0,0,0,0,0,0,0,0,0,0,0,0,1,1,0,0,0,0,東京都/新宿区/市谷加賀町/一丁目,139.73097,35.69644
新宿区市谷加賀町２丁目,2,0,0,0,0,0,0,0,0,0,0,0,0,0,0,0,0,0,0,1,0,0,1,0,0,0,0,0,0,0,0,1,1,0,0,0,0,東京都/新宿区/市谷加賀町/二丁目,139.72861,35.69682
新宿区市谷船河原町,2,0,0,0,0,0,0,0,0,0,0,0,0,0,0,0,0,0,0,1,0,0,0,0,0,0,0,0,0,0,1,1,1,0,0,0,0,東京都/新宿区/市谷船河原町,139.74007,35.69799
新宿区市谷八幡町,5,0,0,0,1,0,0,1,0,0,0,0,0,0,0,0,0,0,0,4,0,0,0,0,0,0,0,0,0,2,2,0,0,0,0,0,0,東京都/新宿区/市谷八幡町,139.73445,35.69214
新宿区神楽坂１丁目,16,0,0,0,3,0,3,0,0,0,0,0,0,0,0,0,0,0,0,12,0,0,2,0,0,0,1,0,0,3,6,1,0,0,0,0,1,東京都/新宿区/神楽坂/一丁目,139.74193,35.69963
新宿区神楽坂２丁目,10,0,0,0,1,0,1,0,0,0,0,0,0,0,0,0,0,0,0,9,0,0,1,0,0,0,1,0,1,2,4,0,0,0,0,0,0,東京都/新宿区/神楽坂/二丁目,139.74167,35.70067
新宿区神楽坂３丁目,6,0,0,0,2,0,2,0,0,0,0,0,0,0,0,0,0,0,0,3,0,0,0,0,0,0,0,0,0,1,2,1,0,0,1,0,0,東京都/新宿区/神楽坂/三丁目,139.74052,35.70145
新宿区神楽坂４丁目,2,1,0,1,0,0,0,0,0,0,0,0,0,0,0,0,0,0,0,0,0,0,0,0,0,0,0,0,0,0,0,1,0,0,0,0,1,東京都/新宿区/神楽坂/四丁目,139.73993,35.70222
新宿区神楽坂５丁目,8,0,0,0,0,0,0,0,0,0,0,0,0,0,0,0,0,0,0,8,0,0,1,1,0,0,0,0,0,5,1,0,0,0,0,0,0,東京都/新宿区/神楽坂/五丁目,139.73862,35.70216
新宿区神楽坂６丁目,13,0,0,0,1,0,1,0,0,0,0,0,0,0,0,0,0,0,0,11,0,0,2,0,0,0,0,0,0,8,1,1,0,0,0,0,1,東京都/新宿区/神楽坂/六丁目,139.737,35.70304
新宿区揚場町,10,0,0,0,1,0,1,0,0,0,1,0,0,0,1,0,0,0,0,7,0,0,5,0,0,0,0,0,0,0,2,1,0,0,0,0,1,東京都/新宿区/揚場町,139.74286,35.70214
新宿区津久戸町,4,0,0,0,0,0,0,0,0,0,1,0,0,0,1,0,0,0,0,1,0,0,0,0,0,0,0,0,0,0,1,2,0,1,0,0,1,東京都/新宿区/津久戸町,139.74123,35.70323
新宿区東五軒町,2,0,0,0,0,0,0,0,0,0,0,0,0,0,0,0,0,0,0,1,0,0,0,0,1,0,0,0,0,0,0,1,0,0,0,0,1,東京都/新宿区/東五軒町,139.7393,35.70662
新宿区西五軒町,4,0,0,0,0,0,0,0,0,0,0,0,0,0,0,0,0,0,0,2,0,0,1,0,0,0,0,0,0,0,1,2,2,0,0,0,0,東京都/新宿区/西五軒町,139.73752,35.70695
新宿区赤城元町,1,0,0,0,0,0,0,0,0,0,0,0,0,0,0,0,0,0,0,0,0,0,0,0,0,0,0,0,0,0,0,1,1,0,0,0,0,東京都/新宿区/赤城元町,139.73636,35.70466
新宿区南榎町,4,0,0,0,0,0,0,0,0,0,0,0,0,0,0,0,0,0,0,4,0,0,1,0,0,0,0,0,0,0,3,0,0,0,0,0,0,東京都/新宿区/南榎町,139.72897,35.7021
新宿区袋町,2,0,0,0,0,0,0,0,0,0,0,0,0,0,0,0,0,0,0,0,0,0,0,0,0,0,0,0,0,0,0,2,2,0,0,0,0,東京都/新宿区/袋町,139.73801,35.70054
新宿区払方町,2,0,0,0,0,0,0,0,0,0,0,0,0,0,0,0,0,0,0,1,0,0,1,0,0,0,0,0,0,0,0,1,1,0,0,0,0,東京都/新宿区/払方町,139.73485,35.69727
新宿区南町,2,0,0,0,1,0,0,1,0,0,1,0,0,0,0,1,0,0,0,0,0,0,0,0,0,0,0,0,0,0,0,0,0,0,0,0,0,東京都/新宿区/南町,139.73653,35.6987
新宿区北町,1,0,0,0,0,0,0,0,0,0,0,0,0,0,0,0,0,0,0,0,0,0,0,0,0,0,0,0,0,0,0,1,0,0,0,0,1,東京都/新宿区/北町,139.73503,35.69995
新宿区納戸町,2,0,0,0,0,0,0,0,0,0,1,0,0,0,1,0,0,0,0,1,0,0,0,0,0,0,0,0,0,0,1,0,0,0,0,0,0,東京都/新宿区/納戸町,139.73305,35.69752
新宿区白銀町,1,0,0,0,0,0,0,0,0,0,0,0,0,0,0,0,0,0,0,1,0,0,1,0,0,0,0,0,0,0,0,0,0,0,0,0,0,東京都/新宿区/白銀町,139.73819,35.70384
新宿区下宮比町,5,0,0,0,0,0,0,0,0,0,0,0,0,0,0,0,0,0,0,4,0,0,0,0,1,0,0,0,0,0,3,1,0,0,0,0,1,東京都/新宿区/下宮比町,139.74364,35.70324
新宿区矢来町,14,0,0,0,1,0,1,0,0,0,1,0,0,0,0,1,0,0,0,7,0,0,3,1,0,0,0,0,0,1,2,5,4,1,0,0,0,東京都/新宿区/矢来町,139.73235,35.70252
新宿区若宮町,3,0,0,0,0,0,0,0,0,0,0,0,0,0,0,0,0,0,0,2,0,0,0,0,0,0,0,0,0,0,2,1,0,0,0,0,1,東京都/新宿区/若宮町,139.73938,35.69954
新宿区岩戸町,1,0,0,0,0,0,0,0,0,0,0,0,0,0,0,0,0,0,0,0,0,0,0,0,0,0,0,0,0,0,0,1,0,0,0,0,1,東京都/新宿区/岩戸町,139.73743,35.70145
新宿区箪笥町,6,0,0,0,1,0,1,0,0,0,0,0,0,0,0,0,0,0,0,4,0,0,1,0,0,0,0,0,0,3,0,1,0,1,0,0,0,東京都/新宿区/箪笥町,139.73485,35.70053
新宿区横寺町,2,0,0,0,1,0,1,0,0,0,0,0,0,0,0,0,0,0,0,1,0,0,0,0,0,0,0,0,0,0,1,0,0,0,0,0,0,東京都/新宿区/横寺町,139.73523,35.70191
新宿区筑土八幡町,2,0,0,0,0,0,0,0,0,0,0,0,0,0,0,0,0,0,0,2,0,0,1,0,0,0,0,0,0,0,1,0,0,0,0,0,0,東京都/新宿区/筑土八幡町,139.74014,35.70425
新宿区神楽河岸,4,0,0,0,1,0,1,0,0,0,0,0,0,0,0,0,0,0,0,2,0,0,0,0,0,0,0,0,1,0,1,1,1,0,0,0,0,東京都/新宿区/神楽河岸,139.74344,35.70082
新宿区市谷薬王寺町,17,7,0,7,1,0,1,0,0,0,2,0,0,0,0,1,1,0,0,5,0,0,1,0,0,1,0,0,0,0,3,2,1,0,0,0,1,東京都/新宿区/市谷薬王寺町,139.7252,35.69681
新宿区市谷柳町,9,0,0,0,2,0,2,0,0,0,0,0,0,0,0,0,0,0,0,5,0,0,2,0,0,0,0,0,0,0,3,2,0,1,0,0,1,東京都/新宿区/市谷柳町,139.72641,35.69927
新宿区赤城下町,3,0,0,0,0,0,0,0,0,0,0,0,0,0,0,0,0,0,0,1,0,0,0,0,0,0,0,0,0,0,1,2,1,0,0,0,1,東京都/新宿区/赤城下町,139.73378,35.70562
新宿区天神町,6,0,0,0,0,0,0,0,0,0,0,0,0,0,0,0,0,0,0,4,0,0,2,0,0,0,0,0,0,0,2,2,0,0,0,0,2,東京都/新宿区/天神町,139.73065,35.70544
新宿区東榎町,2,0,0,0,1,0,1,0,0,0,0,0,0,0,0,0,0,0,0,1,0,0,0,0,0,0,0,0,0,0,1,0,0,0,0,0,0,東京都/新宿区/東榎町,139.72948,35.70507
新宿区早稲田町,8,0,0,0,2,0,2,0,0,0,0,0,0,0,0,0,0,0,0,4,0,0,1,0,0,0,0,0,0,2,1,2,0,0,0,0,2,東京都/新宿区/早稲田町,139.72235,35.70606
新宿区早稲田南町,5,0,0,0,3,0,3,0,0,0,0,0,0,0,0,0,0,0,0,2,0,0,2,0,0,0,0,0,0,0,0,0,0,0,0,0,0,東京都/新宿区/早稲田南町,139.72325,35.70437
新宿区馬場下町,14,0,0,0,1,0,1,0,0,0,0,0,0,0,0,0,0,0,0,11,0,0,5,0,0,0,0,0,0,0,6,2,2,0,0,0,0,東京都/新宿区/馬場下町,139.71965,35.70612
新宿区原町１丁目,15,0,0,0,0,0,0,0,0,0,1,0,0,0,0,0,0,1,0,11,0,0,5,0,0,0,0,0,0,4,2,3,1,1,0,0,1,東京都/新宿区/原町/一丁目,139.72552,35.70039
新宿区原町２丁目,8,0,0,0,1,0,0,1,0,0,1,0,0,0,1,0,0,0,0,3,0,0,1,0,0,0,0,0,0,0,2,3,1,1,0,0,1,東京都/新宿区/原町/二丁目,139.724,35.70058
新宿区原町３丁目,7,0,0,0,1,0,0,1,0,0,0,0,0,0,0,0,0,0,0,3,0,0,1,0,0,0,0,0,0,0,2,3,2,0,0,0,1,東京都/新宿区/原町/三丁目,139.72275,35.69977
新宿区喜久井町,3,0,0,0,0,0,0,0,0,0,0,0,0,0,0,0,0,0,0,2,0,0,2,0,0,0,0,0,0,0,0,1,1,0,0,0,0,東京都/新宿区/喜久井町,139.72206,35.70373
新宿区築地町,2,0,0,0,0,0,0,0,0,0,0,0,0,0,0,0,0,0,0,0,0,0,0,0,0,0,0,0,0,0,0,2,1,0,0,0,1,東京都/新宿区/築地町,139.73579,35.70597
新宿区弁天町,6,0,0,0,0,0,0,0,0,0,1,0,0,0,0,1,0,0,0,2,0,0,1,0,0,0,0,0,0,1,0,3,1,0,0,0,2,東京都/新宿区/弁天町,139.72673,35.7032
新宿区中里町,5,0,0,0,1,0,1,0,0,0,1,0,0,0,0,1,0,0,0,3,0,0,1,0,0,0,0,0,0,2,0,0,0,0,0,0,0,東京都/新宿区/中里町,139.73187,35.70596
新宿区山吹町,14,0,0,0,5,0,4,1,0,0,3,0,0,0,2,1,0,0,0,4,0,0,1,0,1,0,0,0,0,0,2,2,1,1,0,0,0,東京都/新宿区/山吹町,139.7298,35.70794
新宿区改代町,2,0,0,0,0,0,0,0,0,0,0,0,0,0,0,0,0,0,0,1,0,0,0,0,1,0,0,0,0,0,0,1,0,0,0,0,1,東京都/新宿区/改代町,139.73447,35.70726
新宿区水道町,8,0,0,0,2,0,1,1,0,0,1,0,0,0,0,1,0,0,0,4,0,0,0,1,2,0,0,0,0,0,1,1,1,0,0,0,0,東京都/新宿区/水道町,139.73608,35.70805
新宿区早稲田鶴巻町,25,0,0,0,2,0,2,0,0,0,2,0,0,0,0,2,0,0,0,17,0,0,10,0,1,0,0,0,1,0,5,4,1,1,1,0,1,東京都/新宿区/早稲田鶴巻町,139.72443,35.708
新宿区住吉町,25,0,0,0,1,0,0,1,0,0,2,0,0,0,2,0,0,0,0,13,0,0,4,2,0,0,0,0,1,1,5,9,2,4,0,0,3,東京都/新宿区/住吉町,139.72136,35.69306
新宿区市谷台町,7,0,0,0,1,0,1,0,0,0,0,0,0,0,0,0,0,0,0,4,0,0,0,0,0,0,0,0,0,1,3,2,2,0,0,0,0,東京都/新宿区/市谷台町,139.71834,35.6936
新宿区若松町,32,0,0,0,1,0,0,1,0,0,1,0,0,0,0,0,1,0,0,22,0,0,6,0,2,0,0,0,0,10,4,8,2,2,0,0,4,東京都/新宿区/若松町,139.71736,35.70018
新宿区戸山１丁目,22,0,0,0,2,0,1,1,0,0,3,0,1,0,0,2,0,0,0,14,0,0,5,0,0,0,0,0,0,0,9,3,1,0,0,0,2,東京都/新宿区/戸山/一丁目,139.71802,35.70375
新宿区戸山２丁目,20,0,0,0,3,0,2,1,0,0,2,0,0,0,1,1,0,0,0,9,0,0,2,1,1,0,0,0,0,2,3,6,0,1,0,0,5,東京都/新宿区/戸山/二丁目,139.71213,35.70274
新宿区戸山３丁目,10,0,0,0,3,0,3,0,0,0,0,0,0,0,0,0,0,0,0,6,0,0,1,0,0,0,0,0,0,4,1,1,0,1,0,0,0,東京都/新宿区/戸山/三丁目,139.71252,35.70629
新宿区余丁町,29,1,0,1,5,0,1,3,0,1,1,0,0,0,0,1,0,0,0,12,0,1,6,0,1,0,1,0,0,1,2,10,3,0,1,0,6,東京都/新宿区/余丁町,139.71568,35.69636
新宿区百人町１丁目,156,4,1,3,28,0,16,9,2,1,9,0,0,2,2,2,2,1,0,84,0,2,37,3,1,0,2,0,2,3,34,31,6,9,1,0,15,東京都/新宿区/百人町/一丁目,139.69923,35.69992
新宿区百人町２丁目,107,3,1,2,5,0,3,2,0,0,2,0,0,1,1,0,0,0,0,81,0,0,21,2,2,0,2,0,2,35,17,16,1,3,0,0,12,東京都/新宿区/百人町/二丁目,139.69873,35.70299
新宿区百人町３丁目,20,1,0,1,2,0,2,0,0,0,1,0,0,0,0,1,0,0,0,13,0,0,7,1,0,0,0,0,0,1,4,3,0,1,0,0,2,東京都/新宿区/百人町/三丁目,139.69774,35.70601
新宿区百人町４丁目,7,0,0,0,0,0,0,0,0,0,1,0,0,0,0,0,0,0,1,5,0,0,2,0,0,0,0,1,0,1,1,1,0,0,0,0,1,東京都/新宿区/百人町/四丁目,139.69809,35.70821
新宿区戸塚町１丁目,4,0,0,0,0,0,0,0,0,0,0,0,0,0,0,0,0,0,0,3,0,0,2,0,0,0,0,0,0,0,1,1,1,0,0,0,0,東京都/新宿区/戸塚町/一丁目,139.72215,35.70984
新宿区下落合１丁目,26,0,0,0,3,0,3,0,0,0,0,0,0,0,0,0,0,0,0,19,0,0,8,0,1,0,0,0,0,2,8,4,0,0,0,0,4,東京都/新宿区/下落合/一丁目,139.69958,35.71574
新宿区下落合２丁目,16,0,0,0,2,0,0,2,0,0,2,0,0,0,0,2,0,0,0,8,0,0,3,0,0,0,0,0,0,1,4,4,2,0,0,0,2,東京都/新宿区/下落合/二丁目,139.70251,35.71813
新宿区下落合３丁目,29,0,0,0,0,0,0,0,0,0,4,0,0,0,0,2,2,0,0,19,0,0,9,1,0,0,0,2,0,2,5,6,2,0,0,0,4,東京都/新宿区/下落合/三丁目,139.70174,35.72118
新宿区下落合４丁目,16,0,0,0,1,0,1,0,0,0,0,0,0,0,0,0,0,0,0,11,0,0,7,1,0,0,0,0,0,1,2,4,0,0,0,0,4,東京都/新宿区/下落合/四丁目,139.69656,35.71939
新宿区中落合１丁目,17,0,0,0,0,0,0,0,0,0,1,0,0,0,0,1,0,0,0,11,0,0,5,0,0,0,0,1,1,1,3,5,1,1,0,0,3,東京都/新宿区/中落合/一丁目,139.69025,35.71714
新宿区中落合２丁目,14,0,0,0,2,0,1,1,0,0,0,0,0,0,0,0,0,0,0,6,0,0,4,0,0,1,0,0,0,0,1,6,1,2,0,0,3,東京都/新宿区/中落合/二丁目,139.69223,35.71949
新宿区中落合３丁目,20,0,0,0,1,0,1,0,0,0,1,0,0,0,0,1,0,0,0,18,0,0,13,1,0,0,0,1,0,0,3,0,0,0,0,0,0,東京都/新宿区/中落合/三丁目,139.68875,35.72081
新宿区中落合４丁目,8,0,0,0,1,0,0,0,1,0,1,0,0,0,0,0,0,1,0,3,0,0,2,0,0,0,0,0,0,0,1,3,0,1,0,0,2,東京都/新宿区/中落合/四丁目,139.6835,35.71887
新宿区上落合１丁目,37,1,0,1,2,0,0,2,0,0,3,0,0,1,1,0,0,0,1,24,0,1,13,2,0,0,0,0,0,2,6,7,2,0,0,0,5,東京都/新宿区/上落合/一丁目,139.69243,35.71349
新宿区上落合２丁目,28,0,0,0,5,0,3,1,1,0,0,0,0,0,0,0,0,0,0,13,0,0,6,1,0,0,0,0,1,1,4,10,3,1,0,0,6,東京都/新宿区/上落合/二丁目,139.68811,35.7135
新宿区上落合３丁目,21,0,0,0,1,0,1,0,0,0,1,0,0,0,0,1,0,0,0,13,0,0,7,1,0,0,0,0,0,1,4,6,2,0,0,0,4,東京都/新宿区/上落合/三丁目,139.68372,35.71252
新宿区西落合１丁目,20,0,0,0,1,0,1,0,0,0,1,0,0,0,0,1,0,0,0,12,0,0,7,1,0,0,0,0,0,0,4,6,2,0,0,0,4,東京都/新宿区/西落合/一丁目,139.68127,35.72108
新宿区西落合２丁目,17,1,0,1,0,0,0,0,0,0,1,0,0,0,0,1,0,0,0,9,0,0,7,0,0,0,0,0,0,0,2,6,2,3,0,0,1,東京都/新宿区/西落合/二丁目,139.67639,35.72091
新宿区西落合３丁目,28,0,0,0,0,0,0,0,0,0,2,0,0,0,0,2,0,0,0,22,0,0,13,0,0,0,0,0,0,1,8,4,1,0,0,0,3,東京都/新宿区/西落合/三丁目,139.67892,35.72418
新宿区西落合４丁目,8,0,0,0,0,0,0,0,0,0,0,0,0,0,0,0,0,0,0,8,0,0,8,0,0,0,0,0,0,0,0,0,0,0,0,0,0,東京都/新宿区/西落合/四丁目,139.67838,35.72689
新宿区中井１丁目,11,0,0,0,2,0,1,1,0,0,0,0,0,0,0,0,0,0,0,9,0,0,6,0,0,0,0,0,1,0,2,0,0,0,0,0,0,東京都/新宿区/中井/一丁目,139.68423,35.71497
新宿区中井２丁目,6,0,0,0,1,0,0,1,0,0,0,0,0,0,0,0,0,0,0,4,0,0,2,0,0,0,0,0,0,0,2,1,0,0,0,0,1,東京都/新宿区/中井/二丁目,139.68382,35.71643
新宿区北新宿１丁目,57,0,0,0,10,0,2,7,1,0,1,0,0,0,0,1,0,0,0,30,0,0,19,0,0,0,0,0,2,3,6,16,2,7,1,0,6,東京都/新宿区/北新宿/一丁目,139.69388,35.69949
新宿区北新宿２丁目,24,0,0,0,3,0,3,0,0,0,1,0,0,0,0,1,0,0,0,14,0,1,11,0,0,0,0,0,0,0,2,6,1,3,1,0,1,東京都/新宿区/北新宿/二丁目,139.68964,35.69859
新宿区北新宿３丁目,30,0,0,0,3,0,2,0,1,0,3,0,0,0,0,2,1,0,0,16,0,0,7,0,0,0,0,1,0,0,8,8,2,1,0,0,5,東京都/新宿区/北新宿/三丁目,139.69098,35.70385
新宿区北新宿４丁目,40,1,1,0,3,0,2,1,0,0,4,0,0,1,0,2,0,0,1,25,0,0,18,0,1,0,0,0,0,2,4,7,3,3,0,0,1,東京都/新宿区/北新宿/四丁目,139.6913,35.70677
新宿区西新宿１丁目,504,2,2,0,40,0,33,7,0,0,16,1,0,2,11,0,0,0,2,362,1,0,73,2,1,0,7,0,15,188,75,84,20,10,7,0,47,東京都/新宿区/西新宿/一丁目,139.69749,35.69038
新宿区西新宿２丁目,67,1,1,0,3,0,2,1,0,0,0,0,0,0,0,0,0,0,0,40,0,0,9,0,0,0,4,0,2,6,19,23,4,3,0,0,16,東京都/新宿区/西新宿/二丁目,139.69177,35.68945
新宿区西新宿３丁目,50,1,0,1,3,0,2,0,1,0,3,1,0,0,0,2,0,0,0,31,0,0,16,0,0,0,0,0,1,4,10,12,4,2,2,0,4,東京都/新宿区/西新宿/三丁目,139.68918,35.68453
新宿区西新宿４丁目,45,1,0,1,6,0,2,4,0,0,2,0,0,0,0,1,0,0,1,32,0,0,19,3,0,0,0,0,0,0,10,4,2,1,0,0,1,東京都/新宿区/西新宿/四丁目,139.68762,35.68754
新宿区西新宿５丁目,36,0,0,0,3,0,1,2,0,0,4,0,0,2,0,2,0,0,0,23,0,0,14,1,0,0,1,0,0,1,6,6,2,0,0,0,4,東京都/新宿区/西新宿/五丁目,139.68556,35.69289
新宿区西新宿６丁目,95,1,1,0,10,0,7,3,0,0,2,0,0,0,0,1,0,0,1,56,0,1,22,2,0,0,5,0,1,3,22,26,6,5,4,0,11,東京都/新宿区/西新宿/六丁目,139.69096,35.69342
新宿区西新宿７丁目,124,1,1,0,8,0,4,3,1,0,2,0,0,1,1,0,0,0,0,87,0,0,33,1,4,1,2,1,2,14,29,26,5,8,2,0,11,東京都/新宿区/西新宿/七丁目,139.69724,35.69558
新宿区西新宿８丁目,30,1,1,0,6,0,2,3,1,0,0,0,0,0,0,0,0,0,0,19,0,0,15,0,0,0,2,0,0,0,2,4,0,3,0,0,1,東京都/新宿区/西新宿/八丁目,139.69246,35.69578
新宿区西早稲田１丁目,34,0,0,0,2,0,0,2,0,0,0,0,0,0,0,0,0,0,0,25,0,0,15,0,2,0,0,0,0,0,8,7,2,1,0,0,4,東京都/新宿区/西早稲田/一丁目,139.71902,35.70982
新宿区西早稲田２丁目,22,0,0,0,1,0,0,1,0,0,4,0,0,0,0,3,1,0,0,11,0,0,5,2,0,0,0,0,0,1,3,6,2,1,0,0,3,東京都/新宿区/西早稲田/二丁目,139.71304,35.7089
新宿区西早稲田３丁目,35,0,0,0,0,0,0,0,0,0,4,0,0,0,0,2,2,0,0,22,0,1,12,1,0,0,0,0,0,4,4,9,4,0,0,0,5,東京都/新宿区/西早稲田/三丁目,139.71379,35.71209
新宿区高田馬場１丁目,171,0,0,0,15,0,11,2,1,1,8,0,0,0,1,6,1,0,0,123,0,1,33,1,1,0,13,0,2,42,30,25,2,4,1,0,18,東京都/新宿区/高田馬場/一丁目,139.70642,35.71098
新宿区高田馬場２丁目,63,1,1,0,4,0,2,2,0,0,5,0,0,2,1,1,0,0,1,45,0,0,21,0,2,0,0,0,2,7,13,8,2,4,0,0,2,東京都/新宿区/高田馬場/二丁目,139.7075,35.71298
新宿区高田馬場３丁目,64,0,0,0,2,0,1,0,1,0,2,0,0,0,0,2,0,0,0,45,0,0,22,2,5,0,1,0,0,8,7,15,1,2,1,0,11,東京都/新宿区/高田馬場/三丁目,139.6972,35.71347
新宿区高田馬場４丁目,50,1,0,1,3,0,3,0,0,0,3,0,0,1,0,1,0,0,1,31,0,0,14,0,1,0,0,0,2,7,7,12,0,5,1,0,6,東京都/新宿区/高田馬場/四丁目,139.69919,35.71077
新宿区大久保１丁目,128,4,3,1,15,0,10,4,1,0,10,0,0,0,2,7,0,0,1,80,0,1,26,4,1,0,0,1,1,33,13,19,5,3,0,0,11,東京都/新宿区/大久保/一丁目,139.70496,35.69964
新宿区大久保２丁目,107,2,2,0,8,0,3,5,0,0,6,0,0,0,1,2,2,0,1,68,0,2,39,1,2,0,0,1,4,5,14,23,2,11,0,0,10,東京都/新宿区/大久保/二丁目,139.7057,35.70267
新宿区大久保３丁目,39,2,1,1,4,0,3,0,1,0,0,0,0,0,0,0,0,0,0,24,1,0,13,2,0,0,0,0,0,1,7,9,2,6,0,0,1,東京都/新宿区/大久保/三丁目,139.70517,35.70682
新宿区歌舞伎町１丁目,573,8,5,3,112,0,64,44,2,2,20,1,0,0,14,0,0,0,5,311,1,1,36,2,1,0,25,1,44,56,144,122,29,20,6,0,67,東京都/新宿区/歌舞伎町/一丁目,139.70129,35.69539
新宿区歌舞伎町２丁目,361,14,6,8,72,0,33,27,4,8,19,1,0,0,5,5,3,3,2,170,0,4,66,3,4,0,7,3,7,3,73,86,8,9,5,0,64,東京都/新宿区/歌舞伎町/二丁目,139.70383,35.69656
新宿区新小川町,20,2,0,2,2,0,0,0,2,0,1,0,0,0,0,0,0,1,0,10,0,0,3,0,1,0,0,0,1,2,3,5,1,1,1,0,2,東京都/新宿区/新小川町,139.74219,35.70624
新宿区富久町,45,1,1,0,4,0,3,0,1,0,5,0,0,0,0,4,1,0,0,24,0,0,8,1,0,0,0,0,0,7,8,11,0,2,0,0,9,東京都/新宿区/富久町,139.71495,35.69349
新宿区河田町,21,0,0,0,3,0,3,0,0,0,1,0,0,0,0,0,0,1,0,14,0,0,2,0,0,0,0,0,1,2,9,3,2,0,0,0,1,東京都/新宿区/河田町,139.71956,35.69675
新宿区市谷仲之町,5,0,0,0,0,0,0,0,0,0,0,0,0,0,0,0,0,0,0,3,0,0,1,0,0,0,0,0,0,0,2,2,1,1,0,0,0,東京都/新宿区/市谷仲之町,139.72301,35.69472
新宿区市谷山伏町,5,1,0,1,1,0,1,0,0,0,0,0,0,0,0,0,0,0,0,2,0,0,0,0,0,0,0,0,0,0,2,1,0,0,0,0,1,東京都/新宿区/市谷山伏町,139.7282,35.70005
新宿区細工町,3,0,0,0,1,0,1,0,0,0,0,0,0,0,0,0,0,0,0,1,0,0,1,0,0,0,0,0,0,0,0,1,0,0,0,0,1,東京都/新宿区/細工町,139.733,35.69899
新宿区二十騎町,2,0,0,0,1,0,1,0,0,0,0,0,0,0,0,0,0,0,0,1,0,0,0,0,0,0,0,0,0,0,1,0,0,0,0,0,0,東京都/新宿区/二十騎町,139.73064,35.69833
新宿区南山伏町,6,0,0,0,0,0,0,0,0,0,0,0,0,0,0,0,0,0,0,2,0,0,1,0,0,0,0,0,0,0,1,4,1,0,1,0,2,東京都/新宿区/南山伏町,139.73126,35.69913
新宿区北山伏町,3,0,0,0,0,0,0,0,0,0,0,0,0,0,0,0,0,0,0,3,0,0,0,0,0,0,0,0,0,1,2,0,0,0,0,0,0,東京都/新宿区/北山伏町,139.7301,35.70008
新宿区四谷坂町,12,0,0,0,1,0,0,1,0,0,0,0,0,0,0,0,0,0,0,8,0,0,4,0,0,0,0,0,0,1,3,3,2,0,0,0,1,東京都/新宿区/四谷坂町,139.72731,35.6903
新宿区四谷本塩町,1,0,0,0,0,0,0,0,0,0,0,0,0,0,0,0,0,0,0,1,0,0,0,0,1,0,0,0,0,0,0,0,0,0,0,0,0,東京都/新宿区/四谷本塩町,139.72972,35.68948
新宿区四谷三栄町,10,0,0,0,0,0,0,0,0,0,0,0,0,0,0,0,0,0,0,5,0,0,3,1,1,0,0,0,0,0,0,5,4,0,0,0,1,東京都/新宿区/四谷三栄町,139.72604,35.68855
文京区後楽１丁目,82,1,0,1,15,0,11,3,1,0,1,0,0,0,0,0,0,0,1,47,0,0,3,0,0,0,10,0,8,1,25,18,7,5,1,0,5,東京都/文京区/後楽/一丁目,139.75055,35.70457
文京区後楽２丁目,14,0,0,0,1,0,0,1,0,0,0,0,0,0,0,0,0,0,0,7,0,0,6,0,0,0,1,0,0,0,0,6,2,0,2,0,2,東京都/文京区/後楽/二丁目,139.74524,35.70557
文京区春日１丁目,56,1,0,1,13,0,8,5,0,0,1,0,0,0,1,0,0,0,0,36,0,0,8,0,0,0,4,0,1,9,14,5,1,1,0,0,3,東京都/文京区/春日/一丁目,139.74944,35.70805
文京区春日２丁目,10,0,0,0,0,0,0,0,0,0,0,0,0,0,0,0,0,0,0,6,0,0,4,0,0,0,0,0,0,0,2,4,3,0,0,0,1,東京都/文京区/春日/二丁目,139.74284,35.71102
文京区小石川１丁目,27,0,0,0,2,0,2,0,0,0,1,0,0,0,1,0,0,0,0,18,0,0,7,0,0,0,1,0,0,3,7,6,1,2,0,0,3,東京都/文京区/小石川/一丁目,139.75208,35.71198
文京区小石川２丁目,14,0,0,0,2,0,1,0,1,0,0,0,0,0,0,0,0,0,0,8,0,0,6,0,0,0,0,0,0,0,2,4,1,1,0,0,2,東京都/文京区/小石川/二丁目,139.74901,35.71058
文京区小石川３丁目,12,0,0,0,1,0,0,1,0,0,0,0,0,0,0,0,0,0,0,6,0,0,5,0,0,0,0,0,0,0,1,5,1,0,0,0,4,東京都/文京区/小石川/三丁目,139.74786,35.71313
文京区小石川４丁目,16,0,0,0,0,0,0,0,0,0,0,0,0,0,0,0,0,0,0,9,0,0,6,1,0,1,0,0,0,0,1,7,4,0,0,0,3,東京都/文京区/小石川/四丁目,139.74269,35.71426
文京区小石川５丁目,17,0,0,0,2,0,2,0,0,0,2,0,0,0,1,0,0,0,1,9,0,0,6,0,0,0,0,0,0,1,2,4,3,0,0,0,1,東京都/文京区/小石川/五丁目,139.73993,35.71806
文京区白山１丁目,21,0,0,0,0,0,0,0,0,0,1,0,0,0,1,0,0,0,0,12,0,0,7,2,0,0,0,0,2,0,1,8,4,0,0,0,4,東京都/文京区/白山/一丁目,139.75276,35.7188
文京区白山２丁目,13,0,0,0,1,0,1,0,0,0,0,0,0,0,0,0,0,0,0,8,0,0,4,1,0,0,0,0,0,0,3,4,1,0,0,0,3,東京都/文京区/白山/二丁目,139.74832,35.71738
文京区白山３丁目,4,0,0,0,1,0,0,0,1,0,0,0,0,0,0,0,0,0,0,3,0,0,1,0,0,0,0,0,0,0,2,0,0,0,0,0,0,東京都/文京区/白山/三丁目,139.74232,35.72014
文京区白山４丁目,19,0,0,0,1,0,1,0,0,0,0,0,0,0,0,0,0,0,0,14,0,0,13,0,0,0,0,0,0,0,1,4,3,0,0,0,1,東京都/文京区/白山/四丁目,139.74638,35.7216
文京区白山５丁目,32,0,0,0,4,0,3,1,0,0,0,0,0,0,0,0,0,0,0,21,0,0,7,2,0,0,3,0,0,3,6,7,1,0,0,0,6,東京都/文京区/白山/五丁目,139.74956,35.72349
文京区千石１丁目,11,0,0,0,2,0,2,0,0,0,1,0,0,0,0,1,0,0,0,6,0,0,3,0,0,0,2,0,0,0,1,2,0,0,0,0,2,東京都/文京区/千石/一丁目,139.74362,35.72583
文京区千石２丁目,4,0,0,0,0,0,0,0,0,0,0,0,0,0,0,0,0,0,0,3,0,0,2,0,0,0,0,0,0,0,1,1,0,0,0,0,1,東京都/文京区/千石/二丁目,139.74052,35.7237
文京区千石３丁目,12,0,0,0,0,0,0,0,0,0,1,0,0,0,0,1,0,0,0,7,0,1,4,0,0,0,0,0,0,1,1,4,2,0,0,0,2,東京都/文京区/千石/三丁目,139.7382,35.7262
文京区千石４丁目,22,0,0,0,1,0,1,0,0,0,2,0,0,0,2,0,0,0,0,11,0,0,5,0,0,0,0,0,0,0,6,8,2,0,1,0,5,東京都/文京区/千石/四丁目,139.74068,35.72905
文京区水道１丁目,13,0,0,0,0,0,0,0,0,0,0,0,0,0,0,0,0,0,0,12,0,0,8,0,0,0,0,0,0,0,4,1,0,0,0,0,1,東京都/文京区/水道/一丁目,139.74194,35.70931
文京区水道２丁目,19,0,0,0,4,0,2,2,0,0,2,0,0,1,0,0,0,0,1,8,0,0,3,1,0,0,0,0,0,0,4,5,1,0,0,0,4,東京都/文京区/水道/二丁目,139.73694,35.70975
文京区小日向１丁目,14,1,0,1,2,0,1,1,0,0,0,0,0,0,0,0,0,0,0,6,0,0,5,0,1,0,0,0,0,0,0,5,4,1,0,0,0,東京都/文京区/小日向/一丁目,139.73817,35.71276
文京区小日向２丁目,5,0,0,0,0,0,0,0,0,0,1,0,0,0,0,0,1,0,0,3,0,0,2,0,0,0,0,0,0,0,1,1,1,0,0,0,0,東京都/文京区/小日向/二丁目,139.73363,35.71258
文京区小日向３丁目,7,0,0,0,1,0,1,0,0,0,2,0,0,0,0,2,0,0,0,2,0,0,0,0,0,0,0,0,0,0,2,2,1,0,0,0,1,東京都/文京区/小日向/三丁目,139.73402,35.71523
文京区小日向４丁目,11,0,0,0,5,0,1,3,0,1,0,0,0,0,0,0,0,0,0,2,0,0,1,0,0,0,1,0,0,0,0,4,1,0,0,0,3,東京都/文京区/小日向/四丁目,139.7384,35.71552
文京区大塚１丁目,16,0,0,0,3,0,2,1,0,0,0,0,0,0,0,0,0,0,0,7,0,0,1,0,0,0,1,0,2,1,2,6,1,0,0,0,5,東京都/文京区/大塚/一丁目,139.73279,35.71706
文京区大塚２丁目,8,0,0,0,3,0,2,1,0,0,0,0,0,0,0,0,0,0,0,1,0,0,1,0,0,0,0,0,0,0,0,4,1,0,0,0,3,東京都/文京区/大塚/二丁目,139.73138,35.71958
文京区大塚３丁目,17,0,0,0,0,0,0,0,0,0,0,0,0,0,0,0,0,0,0,12,0,0,4,1,0,0,0,0,0,0,7,5,0,0,1,0,4,東京都/文京区/大塚/三丁目,139.73624,35.72083
文京区大塚４丁目,21,0,0,0,6,0,6,0,0,0,1,0,0,0,0,1,0,0,0,10,0,1,2,1,0,0,0,0,0,0,6,4,2,0,0,0,2,東京都/文京区/大塚/四丁目,139.73383,35.72386
文京区大塚５丁目,14,1,0,1,6,0,4,0,2,0,0,0,0,0,0,0,0,0,0,4,0,0,2,0,0,0,0,0,0,0,2,3,2,0,0,0,1,東京都/文京区/大塚/五丁目,139.72729,35.72279
文京区大塚６丁目,14,0,0,0,1,0,1,0,0,0,1,0,0,0,0,1,0,0,0,5,0,0,3,0,0,0,0,0,0,0,2,7,3,0,0,0,4,東京都/文京区/大塚/六丁目,139.72549,35.72501
文京区関口１丁目,57,0,0,0,6,0,6,0,0,0,2,0,0,0,1,0,0,0,1,34,0,0,17,1,0,0,1,0,0,11,4,15,7,1,1,0,6,東京都/文京区/関口/一丁目,139.72963,35.7097
文京区関口２丁目,10,1,0,1,0,0,0,0,0,0,3,0,0,1,0,1,0,1,0,3,0,0,1,0,0,0,0,0,1,0,1,3,0,0,0,0,3,東京都/文京区/関口/二丁目,139.72551,35.71231
文京区関口３丁目,1,0,0,0,0,0,0,0,0,0,0,0,0,0,0,0,0,0,0,1,0,0,0,0,0,0,0,0,0,0,1,0,0,0,0,0,0,東京都/文京区/関口/三丁目,139.72765,35.71367
文京区目白台１丁目,6,0,0,0,1,0,0,1,0,0,1,0,0,1,0,0,0,0,0,2,0,0,2,0,0,0,0,0,0,0,0,2,0,0,0,0,2,東京都/文京区/目白台/一丁目,139.72227,35.71393
文京区目白台２丁目,5,0,0,0,0,0,0,0,0,0,1,0,0,0,0,0,0,0,1,2,0,0,0,0,0,0,0,0,0,1,1,2,0,0,0,0,2,東京都/文京区/目白台/二丁目,139.72112,35.71768
文京区目白台３丁目,5,0,0,0,0,0,0,0,0,0,1,0,0,0,0,1,0,0,0,2,0,0,2,0,0,0,0,0,0,0,0,2,1,0,0,0,1,東京都/文京区/目白台/三丁目,139.72525,35.71724
文京区音羽１丁目,21,0,0,0,1,0,1,0,0,0,2,0,0,0,0,2,0,0,0,13,0,0,4,0,0,0,0,0,0,4,5,5,1,0,0,0,4,東京都/文京区/音羽/一丁目,139.73021,35.71392
文京区音羽２丁目,24,0,0,0,7,0,7,0,0,0,0,0,0,0,0,0,0,0,0,12,0,0,4,0,1,0,0,0,0,3,4,5,2,0,0,0,3,東京都/文京区/音羽/二丁目,139.72768,35.71854
文京区本郷１丁目,34,1,0,1,3,0,2,0,1,0,1,1,0,0,0,0,0,0,0,22,0,0,7,0,0,0,0,0,0,9,6,7,3,0,0,0,4,東京都/文京区/本郷/一丁目,139.7563,35.70502
文京区本郷２丁目,27,0,0,0,5,0,2,3,0,0,1,0,0,0,1,0,0,0,0,18,0,0,8,0,0,0,1,0,0,2,7,3,0,0,0,0,3,東京都/文京区/本郷/二丁目,139.75977,35.7045
文京区本郷３丁目,34,0,0,0,3,0,0,1,2,0,4,0,1,0,0,1,0,0,2,20,0,1,9,1,0,0,1,0,3,0,5,7,1,1,0,0,5,東京都/文京区/本郷/三丁目,139.76294,35.70443
文京区本郷４丁目,29,0,0,0,2,0,2,0,0,0,1,0,0,0,0,1,0,0,0,20,0,0,9,0,1,0,2,0,1,3,4,6,2,0,0,0,4,東京都/文京区/本郷/四丁目,139.75523,35.70945
文京区本郷５丁目,9,0,0,0,0,0,0,0,0,0,0,0,0,0,0,0,0,0,0,9,0,1,6,0,0,0,0,0,0,0,2,0,0,0,0,0,0,東京都/文京区/本郷/五丁目,139.75812,35.71012
文京区本郷６丁目,9,0,0,0,0,0,0,0,0,0,0,0,0,0,0,0,0,0,0,8,0,0,7,0,0,0,0,0,0,0,1,1,0,0,0,0,1,東京都/文京区/本郷/六丁目,139.75809,35.71354
文京区本郷７丁目,67,0,0,0,3,0,0,1,2,0,2,0,0,0,0,0,0,0,2,57,0,0,51,0,0,0,0,0,0,0,6,5,2,2,0,0,1,東京都/文京区/本郷/七丁目,139.76372,35.71159
文京区湯島１丁目,27,0,0,0,1,0,1,0,0,0,1,0,0,0,0,0,0,0,1,21,0,0,8,0,0,0,2,0,0,0,11,4,1,0,2,0,1,東京都/文京区/湯島/一丁目,139.76462,35.70141
文京区湯島２丁目,15,1,1,0,2,0,1,0,1,0,2,0,0,0,1,0,0,0,1,9,0,0,4,1,0,0,0,0,0,0,4,1,1,0,0,0,0,東京都/文京区/湯島/二丁目,139.76591,35.7052
文京区湯島３丁目,72,0,0,0,9,0,5,4,0,0,3,0,0,0,2,1,0,0,0,41,0,2,8,1,0,1,1,1,1,14,12,19,4,0,1,0,14,東京都/文京区/湯島/三丁目,139.76886,35.70579
文京区湯島４丁目,10,0,0,0,0,0,0,0,0,0,1,0,0,1,0,0,0,0,0,6,0,0,3,0,0,0,0,0,0,0,3,3,0,0,1,0,2,東京都/文京区/湯島/四丁目,139.76546,35.70889
文京区西片１丁目,9,0,0,0,0,0,0,0,0,0,0,0,0,0,0,0,0,0,0,5,0,0,1,0,0,0,0,0,0,0,4,4,0,0,0,0,4,東京都/文京区/西片/一丁目,139.75455,35.71313
文京区西片２丁目,12,0,0,0,0,0,0,0,0,0,1,0,0,0,0,1,0,0,0,8,0,0,6,0,0,0,0,0,0,0,2,3,1,0,0,0,2,東京都/文京区/西片/二丁目,139.75577,35.71624
文京区向丘１丁目,7,0,0,0,1,0,0,1,0,0,3,0,0,0,0,1,0,0,2,3,0,0,3,0,0,0,0,0,0,0,0,0,0,0,0,0,0,東京都/文京区/向丘/一丁目,139.7556,35.71949
文京区向丘２丁目,15,0,0,0,1,0,1,0,0,0,0,0,0,0,0,0,0,0,0,9,0,0,7,0,0,0,0,0,0,0,2,5,2,1,0,0,2,東京都/文京区/向丘/二丁目,139.75674,35.7216
文京区弥生１丁目,11,0,0,0,0,0,0,0,0,0,0,0,0,0,0,0,0,0,0,10,0,0,9,0,0,0,0,0,1,0,0,1,0,1,0,0,0,東京都/文京区/弥生/一丁目,139.7605,35.71796
文京区弥生２丁目,9,0,0,0,0,0,0,0,0,0,0,0,0,0,0,0,0,0,0,6,0,0,4,2,0,0,0,0,0,0,0,3,2,0,0,0,1,東京都/文京区/弥生/二丁目,139.76401,35.71615
文京区根津１丁目,9,0,0,0,2,0,1,1,0,0,0,0,0,0,0,0,0,0,0,4,0,0,4,0,0,0,0,0,0,0,0,3,1,0,0,0,2,東京都/文京区/根津/一丁目,139.76285,35.71881
文京区根津２丁目,7,0,0,0,0,0,0,0,0,0,0,0,0,0,0,0,0,0,0,6,0,1,5,0,0,0,0,0,0,0,0,1,0,0,0,0,1,東京都/文京区/根津/二丁目,139.76569,35.71854
文京区千駄木１丁目,15,1,0,1,1,0,1,0,0,0,0,0,0,0,0,0,0,0,0,12,0,0,10,0,0,0,0,0,0,0,2,1,1,0,0,0,0,東京都/文京区/千駄木/一丁目,139.75899,35.72275
文京区千駄木２丁目,20,1,1,0,2,0,1,1,0,0,1,0,0,0,0,1,0,0,0,9,0,0,7,0,0,0,0,0,0,0,2,7,2,0,0,0,5,東京都/文京区/千駄木/二丁目,139.76187,35.7229
文京区千駄木３丁目,24,0,0,0,4,0,2,1,1,0,0,0,0,0,0,0,0,0,0,17,0,0,11,1,0,0,0,0,0,1,4,3,2,0,0,0,1,東京都/文京区/千駄木/三丁目,139.76254,35.72778
文京区千駄木４丁目,7,0,0,0,0,0,0,0,0,0,0,0,0,0,0,0,0,0,0,2,0,0,1,0,0,0,0,0,0,1,0,5,2,0,1,0,2,東京都/文京区/千駄木/四丁目,139.76001,35.73095
文京区千駄木５丁目,11,0,0,0,1,0,1,0,0,0,1,0,0,0,0,1,0,0,0,8,0,0,4,0,0,0,0,0,0,1,3,1,0,0,0,0,1,東京都/文京区/千駄木/五丁目,139.75842,35.72749
文京区本駒込１丁目,16,0,0,0,3,0,2,0,1,0,1,0,0,0,1,0,0,0,0,9,0,0,4,0,0,0,0,0,0,0,5,3,0,0,0,0,3,東京都/文京区/本駒込/一丁目,139.75148,35.7255
文京区本駒込２丁目,20,0,0,0,2,0,0,1,1,0,2,0,0,0,1,1,0,0,0,12,0,0,7,1,0,0,0,0,0,2,2,4,1,0,2,0,1,東京都/文京区/本駒込/二丁目,139.74794,35.72873
文京区本駒込３丁目,20,0,0,0,0,0,0,0,0,0,3,0,0,0,0,0,0,3,0,8,0,0,4,0,0,0,0,0,0,0,4,9,6,0,0,0,3,東京都/文京区/本駒込/三丁目,139.75444,35.72775
文京区本駒込４丁目,13,1,1,0,1,0,0,1,0,0,0,0,0,0,0,0,0,0,0,8,0,0,4,0,0,0,0,0,0,0,4,3,0,0,0,0,3,東京都/文京区/本駒込/四丁目,139.75633,35.73244
文京区本駒込５丁目,14,1,1,0,2,0,1,0,0,1,0,0,0,0,0,0,0,0,0,8,0,0,6,0,0,0,0,0,0,0,2,3,1,1,0,0,1,東京都/文京区/本駒込/五丁目,139.75165,35.7328
文京区本駒込６丁目,16,0,0,0,1,0,1,0,0,0,3,0,0,0,2,0,0,0,1,7,0,0,5,0,0,0,0,0,0,0,2,5,1,1,0,0,3,東京都/文京区/本駒込/六丁目,139.7449,35.73178
台東区台東１丁目,9,0,0,0,1,0,1,0,0,0,0,0,0,0,0,0,0,0,0,6,0,0,5,1,0,0,0,0,0,0,0,2,1,0,0,0,1,東京都/台東区/台東/一丁目,139.7782,35.70146
台東区台東２丁目,17,0,0,0,4,0,1,3,0,0,0,0,0,0,0,0,0,0,0,9,0,0,8,0,0,0,0,0,0,0,1,4,2,0,0,0,2,東京都/台東区/台東/二丁目,139.77844,35.70325
台東区台東３丁目,15,0,0,0,1,0,0,1,0,0,1,0,0,0,1,0,0,0,0,9,0,0,5,0,1,0,0,0,0,2,1,4,1,0,0,0,3,東京都/台東区/台東/三丁目,139.77873,35.70484
台東区台東４丁目,49,0,0,0,3,0,3,0,0,0,2,0,0,1,1,0,0,0,0,37,0,0,17,0,0,0,4,0,1,9,6,7,4,0,0,0,3,東京都/台東区/台東/四丁目,139.77942,35.7066
台東区柳橋１丁目,12,0,0,0,0,0,0,0,0,0,2,0,0,2,0,0,0,0,0,5,0,0,3,0,0,0,0,0,0,0,2,5,0,2,0,0,3,東京都/台東区/柳橋/一丁目,139.78783,35.6965
台東区柳橋２丁目,10,0,0,0,1,0,0,1,0,0,1,0,0,0,1,0,0,0,0,7,0,0,6,0,0,0,0,0,0,0,1,1,0,1,0,0,0,東京都/台東区/柳橋/二丁目,139.78938,35.69872
台東区浅草橋１丁目,64,0,0,0,11,0,6,4,1,0,3,0,0,0,3,0,0,0,0,38,0,0,12,2,0,0,4,0,2,7,11,12,1,1,1,0,9,東京都/台東区/浅草橋/一丁目,139.7845,35.69741
台東区浅草橋２丁目,53,0,0,0,1,0,1,0,0,0,42,42,0,0,0,0,0,0,0,7,0,0,2,1,0,0,0,0,0,2,2,3,0,1,0,0,2,東京都/台東区/浅草橋/二丁目,139.78549,35.69963
台東区浅草橋３丁目,20,0,0,0,3,0,0,1,1,1,2,0,0,1,0,0,0,0,1,9,0,0,7,0,0,0,0,0,0,0,2,6,2,1,1,0,2,東京都/台東区/浅草橋/三丁目,139.78618,35.70087
台東区浅草橋４丁目,9,1,0,1,1,0,0,0,1,0,0,0,0,0,0,0,0,0,0,4,0,0,3,1,0,0,0,0,0,0,0,3,1,1,0,0,1,東京都/台東区/浅草橋/四丁目,139.78143,35.6985
台東区浅草橋５丁目,15,0,0,0,0,0,0,0,0,0,0,0,0,0,0,0,0,0,0,12,0,1,7,0,0,1,0,0,0,0,3,3,0,0,0,0,3,東京都/台東区/浅草橋/五丁目,139.7821,35.70056
台東区鳥越１丁目,9,0,0,0,0,0,0,0,0,0,0,0,0,0,0,0,0,0,0,7,0,0,4,0,0,1,0,0,0,0,2,2,1,0,0,0,1,東京都/台東区/鳥越/一丁目,139.78296,35.70292
台東区鳥越２丁目,6,0,0,0,1,0,0,0,0,1,0,0,0,0,0,0,0,0,0,2,0,0,1,0,0,0,0,0,0,0,1,3,1,0,0,0,2,東京都/台東区/鳥越/二丁目,139.78607,35.70244
台東区蔵前１丁目,3,1,0,1,0,0,0,0,0,0,0,0,0,0,0,0,0,0,0,1,0,0,1,0,0,0,0,0,0,0,0,1,1,0,0,0,0,東京都/台東区/蔵前/一丁目,139.79057,35.70019
台東区蔵前２丁目,16,1,0,1,2,0,1,1,0,0,0,0,0,0,0,0,0,0,0,7,0,0,1,0,0,2,0,0,0,1,3,6,2,1,0,0,3,東京都/台東区/蔵前/二丁目,139.7925,35.70302
台東区蔵前３丁目,19,0,0,0,0,0,0,0,0,0,0,0,0,0,0,0,0,0,0,18,0,0,8,1,0,0,0,0,0,4,5,1,0,0,0,0,1,東京都/台東区/蔵前/三丁目,139.79106,35.7044
台東区蔵前４丁目,6,0,0,0,0,0,0,0,0,0,0,0,0,0,0,0,0,0,0,4,0,0,2,0,0,0,0,0,1,1,0,2,0,0,0,0,2,東京都/台東区/蔵前/四丁目,139.78888,35.70438
台東区小島１丁目,7,0,0,0,0,0,0,0,0,0,0,0,0,0,0,0,0,0,0,5,0,0,3,0,0,1,0,0,0,0,1,2,0,0,0,0,2,東京都/台東区/小島/一丁目,139.78297,35.70429
台東区小島２丁目,11,0,0,0,2,0,1,1,0,0,0,0,0,0,0,0,0,0,0,6,0,0,5,0,0,0,0,0,0,1,0,3,3,0,0,0,0,東京都/台東区/小島/二丁目,139.78325,35.70591
台東区三筋１丁目,10,0,0,0,0,0,0,0,0,0,1,0,0,0,0,1,0,0,0,5,0,0,5,0,0,0,0,0,0,0,0,4,2,1,0,0,1,東京都/台東区/三筋/一丁目,139.78578,35.70366
台東区三筋２丁目,7,0,0,0,0,0,0,0,0,0,0,0,0,0,0,0,0,0,0,5,0,0,3,0,0,1,0,0,0,0,1,2,0,0,0,0,2,東京都/台東区/三筋/二丁目,139.78636,35.7055
台東区秋葉原,3,0,0,0,0,0,0,0,0,0,0,0,0,0,0,0,0,0,0,3,0,0,2,0,0,0,0,0,0,1,0,0,0,0,0,0,0,東京都/台東区/秋葉原,139.77441,35.7019
台東区上野１丁目,15,1,1,0,0,0,0,0,0,0,1,1,0,0,0,0,0,0,0,7,0,0,3,1,0,0,0,0,0,0,3,6,3,1,0,0,2,東京都/台東区/上野/一丁目,139.77139,35.70668
台東区上野２丁目,77,1,1,0,13,0,9,3,0,1,6,0,0,0,5,1,0,0,0,41,0,0,11,1,0,0,2,0,6,3,18,16,6,1,1,2,6,東京都/台東区/上野/二丁目,139.77209,35.70906
台東区上野３丁目,102,0,0,0,4,0,1,3,0,0,3,0,0,0,3,0,0,0,0,80,0,0,11,1,0,0,4,0,4,41,19,15,7,4,1,0,3,東京都/台東区/上野/三丁目,139.7731,35.70541
台東区上野４丁目,185,0,0,0,7,0,2,5,0,0,1,0,0,0,0,0,0,0,1,149,0,1,20,1,1,0,5,1,11,74,35,28,13,5,2,0,8,東京都/台東区/上野/四丁目,139.77388,35.70939
台東区上野５丁目,75,2,1,1,10,0,8,2,0,0,0,0,0,0,0,0,0,0,0,56,0,0,11,0,0,0,3,0,4,9,29,7,2,1,0,0,4,東京都/台東区/上野/五丁目,139.77531,35.70519
台東区上野６丁目,174,0,0,0,14,0,7,6,0,1,2,1,0,0,1,0,0,0,0,135,0,0,16,4,0,0,8,0,5,54,48,23,9,4,2,0,8,東京都/台東区/上野/六丁目,139.77538,35.70923
台東区上野７丁目,170,1,1,0,33,0,19,12,2,0,3,0,0,0,1,0,0,0,2,103,0,0,31,0,1,0,13,0,11,17,30,30,1,9,1,0,19,東京都/台東区/上野/七丁目,139.77927,35.71588
台東区東上野１丁目,19,0,0,0,1,0,1,0,0,0,0,0,0,0,0,0,0,0,0,10,0,0,5,0,1,0,0,0,0,0,4,8,2,0,0,0,6,東京都/台東区/東上野/一丁目,139.77914,35.70801
台東区東上野２丁目,19,0,0,0,3,0,0,3,0,0,0,0,0,0,0,0,0,0,0,13,0,1,5,1,0,0,0,0,1,1,4,3,2,0,0,0,1,東京都/台東区/東上野/二丁目,139.77856,35.7098
台東区東上野３丁目,32,0,0,0,8,0,3,5,0,0,2,0,0,1,1,0,0,0,0,15,0,0,8,0,0,0,0,0,1,2,4,7,1,2,0,0,4,東京都/台東区/東上野/三丁目,139.78018,35.71078
台東区東上野４丁目,23,1,0,1,0,0,0,0,0,0,0,0,0,0,0,0,0,0,0,11,0,0,6,1,0,0,0,0,0,0,4,11,3,3,1,0,4,東京都/台東区/東上野/四丁目,139.78044,35.71397
台東区東上野５丁目,18,0,0,0,0,0,0,0,0,0,0,0,0,0,0,0,0,0,0,13,0,0,7,1,0,0,0,0,0,3,2,5,2,0,0,0,3,東京都/台東区/東上野/五丁目,139.78206,35.71348
台東区東上野６丁目,18,0,0,0,1,0,1,0,0,0,1,0,0,0,1,0,0,0,0,13,0,0,5,1,0,0,0,0,0,1,6,3,0,0,0,0,3,東京都/台東区/東上野/六丁目,139.78407,35.71331
台東区元浅草１丁目,18,0,0,0,2,0,1,1,0,0,0,0,0,0,0,0,0,0,0,12,0,1,6,0,1,0,0,0,0,1,3,4,1,0,0,0,3,東京都/台東区/元浅草/一丁目,139.78387,35.70811
台東区元浅草２丁目,5,0,0,0,0,0,0,0,0,0,1,0,0,0,0,0,0,0,1,4,0,0,4,0,0,0,0,0,0,0,0,0,0,0,0,0,0,東京都/台東区/元浅草/二丁目,139.78384,35.71017
台東区元浅草３丁目,16,0,0,0,0,0,0,0,0,0,0,0,0,0,0,0,0,0,0,11,0,0,6,0,0,0,0,0,0,2,3,5,1,1,0,0,3,東京都/台東区/元浅草/三丁目,139.78648,35.70768
台東区元浅草４丁目,10,0,0,0,1,0,0,1,0,0,2,0,0,1,0,1,0,0,0,7,0,0,3,1,0,0,0,0,0,0,3,0,0,0,0,0,0,東京都/台東区/元浅草/四丁目,139.78659,35.7098
台東区寿１丁目,10,0,0,0,0,0,0,0,0,0,0,0,0,0,0,0,0,0,0,9,0,0,9,0,0,0,0,0,0,0,0,1,0,0,0,0,1,東京都/台東区/寿/一丁目,139.78949,35.70736
台東区寿２丁目,14,0,0,0,2,0,2,0,0,0,1,0,0,0,0,1,0,0,0,6,0,0,4,0,0,0,0,0,0,1,1,5,4,0,0,0,1,東京都/台東区/寿/二丁目,139.78972,35.70926
台東区寿３丁目,16,0,0,0,1,0,1,0,0,0,0,0,0,0,0,0,0,0,0,10,0,0,4,0,0,0,0,0,0,2,4,5,1,1,0,0,3,東京都/台東区/寿/三丁目,139.79211,35.707
台東区寿４丁目,10,0,0,0,2,0,0,2,0,0,1,0,0,1,0,0,0,0,0,5,0,0,3,0,1,0,0,0,0,0,1,2,0,0,1,0,1,東京都/台東区/寿/四丁目,139.79271,35.70869
台東区駒形１丁目,17,0,0,0,1,0,0,1,0,0,0,0,0,0,0,0,0,0,0,9,0,0,4,1,2,0,0,0,0,1,1,7,4,1,0,0,2,東京都/台東区/駒形/一丁目,139.79431,35.70711
台東区駒形２丁目,7,0,0,0,1,0,0,0,1,0,0,0,0,0,0,0,0,0,0,3,0,0,2,0,0,0,0,1,0,0,0,3,0,0,0,0,3,東京都/台東区/駒形/二丁目,139.79546,35.70659
台東区北上野１丁目,11,0,0,0,1,0,0,1,0,0,0,0,0,0,0,0,0,0,0,9,0,0,4,0,0,0,0,0,0,2,3,1,0,0,0,0,1,東京都/台東区/北上野/一丁目,139.78276,35.71772
台東区北上野２丁目,23,1,0,1,1,0,0,0,1,0,1,0,0,0,0,1,0,0,0,12,0,0,9,2,0,0,0,0,0,0,1,8,1,0,3,0,4,東京都/台東区/北上野/二丁目,139.78432,35.71759
台東区下谷１丁目,14,0,0,0,2,0,1,1,0,0,0,0,0,0,0,0,0,0,0,11,0,1,9,1,0,0,0,0,0,0,0,1,1,0,0,0,0,東京都/台東区/下谷/一丁目,139.78152,35.7188
台東区下谷２丁目,29,0,0,0,1,0,1,0,0,0,1,0,0,0,1,0,0,0,0,18,0,0,12,0,1,0,0,1,0,1,3,9,3,2,0,0,4,東京都/台東区/下谷/二丁目,139.78389,35.72202
台東区下谷３丁目,14,0,0,0,0,0,0,0,0,0,1,0,0,0,1,0,0,0,0,9,0,0,8,0,0,1,0,0,0,0,0,4,1,1,0,0,2,東京都/台東区/下谷/三丁目,139.78764,35.72569
台東区根岸１丁目,79,2,1,1,8,0,1,6,1,0,0,0,0,0,0,0,0,0,0,52,0,0,21,1,0,0,1,0,6,0,23,17,6,1,1,0,9,東京都/台東区/根岸/一丁目,139.77914,35.72161
台東区根岸２丁目,18,1,0,1,0,0,0,0,0,0,2,0,0,0,1,0,0,0,1,11,0,0,7,0,1,0,0,0,0,0,3,4,2,0,0,0,2,東京都/台東区/根岸/二丁目,139.77582,35.72488
台東区根岸３丁目,15,0,0,0,0,0,0,0,0,0,1,0,0,0,1,0,0,0,0,10,0,0,7,1,0,0,0,0,0,0,2,4,1,2,0,0,1,東京都/台東区/根岸/三丁目,139.7812,35.72274
台東区根岸４丁目,11,0,0,0,1,0,1,0,0,0,0,0,0,0,0,0,0,0,0,8,0,0,5,1,0,0,0,0,0,0,2,2,0,0,0,0,2,東京都/台東区/根岸/四丁目,139.78413,35.72554
台東区根岸５丁目,31,0,0,0,3,0,1,2,0,0,2,0,0,0,0,1,0,1,0,21,0,1,12,2,0,0,0,0,0,1,5,5,2,0,0,0,3,東京都/台東区/根岸/五丁目,139.78754,35.72755
台東区入谷１丁目,33,0,0,0,1,0,1,0,0,0,0,0,0,0,0,0,0,0,0,25,0,0,17,3,0,0,0,0,0,4,1,7,4,1,0,0,2,東京都/台東区/入谷/一丁目,139.78595,35.72054
台東区入谷２丁目,16,0,0,0,1,0,1,0,0,0,0,0,0,0,0,0,0,0,0,10,0,1,5,1,0,0,0,0,0,0,3,5,1,0,0,0,4,東京都/台東区/入谷/二丁目,139.78842,35.72039
台東区竜泉１丁目,11,0,0,0,1,0,0,1,0,0,1,0,0,0,0,0,0,0,1,6,0,1,3,1,0,0,0,0,0,0,1,3,1,1,0,0,1,東京都/台東区/竜泉/一丁目,139.78911,35.7235
台東区竜泉２丁目,16,0,0,0,1,0,0,0,1,0,0,0,0,0,0,0,0,0,0,11,0,0,10,0,0,0,0,0,0,0,1,4,3,0,0,0,1,東京都/台東区/竜泉/二丁目,139.7899,35.7266
台東区竜泉３丁目,16,0,0,0,0,0,0,0,0,0,3,0,0,2,0,1,0,0,0,13,0,0,11,0,0,1,0,0,0,0,1,0,0,0,0,0,0,東京都/台東区/竜泉/三丁目,139.79279,35.72543
台東区松が谷１丁目,13,0,0,0,0,0,0,0,0,0,3,0,0,0,0,3,0,0,0,7,0,0,5,1,0,0,0,0,0,0,1,3,1,2,0,0,0,東京都/台東区/松が谷/一丁目,139.78671,35.71157
台東区松が谷２丁目,9,0,0,0,2,0,0,2,0,0,0,0,0,0,0,0,0,0,0,5,0,0,1,0,0,0,0,0,0,0,4,2,0,0,0,0,2,東京都/台東区/松が谷/二丁目,139.78662,35.71388
台東区松が谷３丁目,12,0,0,0,2,0,1,1,0,0,0,0,0,0,0,0,0,0,0,8,0,0,5,2,0,0,0,1,0,0,0,2,2,0,0,0,0,東京都/台東区/松が谷/三丁目,139.78722,35.71606
台東区松が谷４丁目,12,0,0,0,0,0,0,0,0,0,2,0,0,0,1,0,0,0,1,9,0,0,5,0,0,0,0,0,0,0,4,1,0,1,0,0,0,東京都/台東区/松が谷/四丁目,139.78746,35.71799
台東区西浅草１丁目,14,0,0,0,1,0,1,0,0,0,0,0,0,0,0,0,0,0,0,10,0,0,6,0,0,0,0,0,1,0,3,3,1,1,0,0,1,東京都/台東区/西浅草/一丁目,139.79007,35.71096
台東区西浅草２丁目,37,1,1,0,1,0,0,1,0,0,0,0,0,0,0,0,0,0,0,24,0,0,17,0,0,0,1,0,1,4,1,11,6,0,3,0,2,東京都/台東区/西浅草/二丁目,139.78996,35.71297
台東区西浅草３丁目,36,1,1,0,6,0,1,5,0,0,2,0,0,0,0,1,0,0,1,20,0,0,8,0,0,0,1,0,0,8,3,7,3,2,0,0,2,東京都/台東区/西浅草/三丁目,139.79086,35.71601
台東区雷門１丁目,15,0,0,0,2,0,0,2,0,0,0,0,0,0,0,0,0,0,0,9,0,1,3,2,0,0,0,0,1,0,2,4,2,0,0,0,2,東京都/台東区/雷門/一丁目,139.79311,35.71032
台東区雷門２丁目,33,0,0,0,4,0,3,0,1,0,0,0,0,0,0,0,0,0,0,26,0,1,9,1,0,0,3,0,0,0,12,3,2,0,0,0,1,東京都/台東区/雷門/二丁目,139.79655,35.70972
台東区浅草１丁目,128,1,1,0,8,0,4,0,3,1,3,0,0,0,2,0,0,0,1,94,0,1,38,2,0,0,8,0,1,23,21,22,7,5,0,0,10,東京都/台東区/浅草/一丁目,139.79491,35.71228
台東区浅草２丁目,119,1,1,0,9,0,5,4,0,0,1,0,0,0,1,0,0,0,0,91,0,0,34,1,0,0,9,0,1,27,19,17,2,4,0,0,11,東京都/台東区/浅草/二丁目,139.79546,35.71494
台東区浅草３丁目,32,0,0,0,4,0,2,1,1,0,3,0,0,0,3,0,0,0,0,16,0,1,11,0,0,0,0,0,1,1,2,9,1,1,1,0,6,東京都/台東区/浅草/三丁目,139.79584,35.71728
台東区浅草４丁目,36,0,0,0,6,0,3,2,1,0,1,0,0,0,1,0,0,0,0,21,0,0,16,2,0,0,0,0,0,0,3,8,0,0,0,0,8,東京都/台東区/浅草/四丁目,139.79604,35.71881
台東区浅草５丁目,33,0,0,0,2,0,1,0,1,0,0,0,0,0,0,0,0,0,0,26,1,0,18,3,0,0,0,0,1,0,3,5,0,1,0,0,4,東京都/台東区/浅草/五丁目,139.79732,35.7211
台東区浅草６丁目,40,2,1,1,3,0,2,1,0,0,1,0,0,0,0,1,0,0,0,27,0,0,11,1,1,4,0,0,0,8,2,7,0,0,0,0,7,東京都/台東区/浅草/六丁目,139.80052,35.7179
台東区浅草７丁目,6,0,0,0,0,0,0,0,0,0,1,0,0,1,0,0,0,0,0,3,0,0,1,0,0,0,1,0,0,0,1,2,0,1,0,0,1,東京都/台東区/浅草/七丁目,139.8031,35.71659
台東区花川戸１丁目,53,0,0,0,4,0,2,2,0,0,1,1,0,0,0,0,0,0,0,39,0,0,11,0,0,0,0,0,1,18,9,9,4,1,1,0,3,東京都/台東区/花川戸/一丁目,139.79942,35.71219
台東区花川戸２丁目,11,0,0,0,2,0,1,0,0,1,0,0,0,0,0,0,0,0,0,7,0,0,5,0,0,0,0,0,0,1,1,2,0,1,0,0,1,東京都/台東区/花川戸/二丁目,139.80055,35.71439
台東区千束１丁目,14,0,0,0,0,0,0,0,0,0,0,0,0,0,0,0,0,0,0,13,0,0,8,0,0,0,0,0,0,0,5,1,0,0,0,0,1,東京都/台東区/千束/一丁目,139.79134,35.71863
台東区千束２丁目,10,0,0,0,0,0,0,0,0,0,1,0,0,1,0,0,0,0,0,9,0,0,8,1,0,0,0,0,0,0,0,0,0,0,0,0,0,東京都/台東区/千束/二丁目,139.79027,35.72101
台東区千束３丁目,52,1,1,0,4,0,3,1,0,0,0,0,0,0,0,0,0,0,0,40,0,0,7,0,1,1,0,0,1,26,4,7,1,1,0,0,5,東京都/台東区/千束/三丁目,139.7924,35.72189
台東区千束４丁目,31,0,0,0,2,0,1,0,1,0,4,2,0,0,0,1,1,0,0,23,0,0,14,2,1,0,0,0,0,1,5,2,1,1,0,0,0,東京都/台東区/千束/四丁目,139.79556,35.72409
台東区今戸１丁目,21,1,0,1,0,0,0,0,0,0,0,0,0,0,0,0,0,0,0,17,0,0,11,0,0,0,0,0,3,2,1,3,0,2,0,0,1,東京都/台東区/今戸/一丁目,139.80493,35.71841
台東区今戸２丁目,11,0,0,0,1,0,1,0,0,0,0,0,0,0,0,0,0,0,0,6,0,0,3,1,0,0,0,0,0,0,2,4,1,0,0,0,3,東京都/台東区/今戸/二丁目,139.80518,35.72118
台東区東浅草１丁目,19,1,0,1,1,0,0,1,0,0,1,0,0,0,1,0,0,0,0,14,0,0,7,1,0,0,0,0,0,3,3,2,0,0,0,0,2,東京都/台東区/東浅草/一丁目,139.8008,35.72116
台東区東浅草２丁目,9,0,0,0,1,0,0,1,0,0,0,0,0,0,0,0,0,0,0,7,0,0,4,1,0,0,0,0,0,2,0,1,0,1,0,0,0,東京都/台東区/東浅草/二丁目,139.79933,35.7246
台東区橋場１丁目,9,0,0,0,1,0,0,1,0,0,0,0,0,0,0,0,0,0,0,6,0,0,5,0,0,0,0,0,0,0,1,2,0,0,0,0,2,東京都/台東区/橋場/一丁目,139.80699,35.72427
台東区橋場２丁目,13,0,0,0,1,0,0,1,0,0,0,0,0,0,0,0,0,0,0,10,0,0,8,0,0,0,0,0,0,1,1,2,1,1,0,0,0,東京都/台東区/橋場/二丁目,139.80717,35.72703
台東区清川１丁目,7,0,0,0,1,0,0,1,0,0,0,0,0,0,0,0,0,0,0,6,0,0,2,1,0,0,0,0,0,0,3,0,0,0,0,0,0,東京都/台東区/清川/一丁目,139.80302,35.72454
台東区清川２丁目,32,1,0,1,6,0,3,3,0,0,1,0,0,0,0,1,0,0,0,18,0,0,5,0,1,0,0,0,0,8,4,6,0,3,0,0,3,東京都/台東区/清川/二丁目,139.80263,35.72771
台東区日本堤１丁目,22,0,0,0,4,0,1,3,0,0,0,0,0,0,0,0,0,0,0,14,0,0,9,1,0,0,0,0,0,0,4,4,1,1,0,0,2,東京都/台東区/日本堤/一丁目,139.79858,35.72585
台東区日本堤２丁目,34,0,0,0,3,0,2,1,0,0,0,0,0,0,0,0,0,0,0,28,0,0,8,1,0,0,0,0,0,16,3,3,1,1,0,0,1,東京都/台東区/日本堤/二丁目,139.797,35.72774
台東区三ノ輪１丁目,31,0,0,0,4,0,1,3,0,0,0,0,0,0,0,0,0,0,0,22,0,0,14,1,0,0,0,0,0,0,7,5,4,0,0,0,1,東京都/台東区/三ノ輪/一丁目,139.79268,35.72804
台東区三ノ輪２丁目,11,0,0,0,2,0,0,1,1,0,0,0,0,0,0,0,0,0,0,6,0,0,3,0,0,0,0,0,0,0,3,3,1,0,0,0,2,東京都/台東区/三ノ輪/二丁目,139.79326,35.7295
台東区池之端１丁目,6,0,0,0,1,0,0,1,0,0,0,0,0,0,0,0,0,0,0,2,0,0,1,0,0,0,0,0,0,1,0,3,1,1,0,0,1,東京都/台東区/池之端/一丁目,139.76785,35.70977
台東区池之端２丁目,8,0,0,0,0,0,0,0,0,0,0,0,0,0,0,0,0,0,0,8,0,0,5,3,0,0,0,0,0,0,0,0,0,0,0,0,0,東京都/台東区/池之端/二丁目,139.76694,35.71499
台東区池之端４丁目,8,0,0,0,1,0,0,1,0,0,0,0,0,0,0,0,0,0,0,4,0,1,2,0,0,0,0,0,0,0,1,3,2,0,0,0,1,東京都/台東区/池之端/四丁目,139.76823,35.71848
台東区上野公園,61,1,1,0,6,0,2,4,0,0,0,0,0,0,0,0,0,0,0,39,0,0,8,2,0,0,3,0,5,1,20,15,1,4,1,0,9,東京都/台東区/上野公園,139.77354,35.71533
台東区上野桜木１丁目,4,0,0,0,0,0,0,0,0,0,0,0,0,0,0,0,0,0,0,3,0,0,1,0,0,0,0,0,0,0,2,1,1,0,0,0,0,東京都/台東区/上野桜木/一丁目,139.77477,35.72139
台東区上野桜木２丁目,7,0,0,0,0,0,0,0,0,0,0,0,0,0,0,0,0,0,0,4,0,0,2,0,0,0,0,0,0,0,2,3,1,0,0,0,2,東京都/台東区/上野桜木/二丁目,139.77361,35.72291
台東区谷中１丁目,7,1,0,1,0,0,0,0,0,0,1,0,1,0,0,0,0,0,0,3,0,0,2,1,0,0,0,0,0,0,0,2,0,1,0,0,1,東京都/台東区/谷中/一丁目,139.76727,35.7201
台東区谷中２丁目,2,0,0,0,0,0,0,0,0,0,0,0,0,0,0,0,0,0,0,0,0,0,0,0,0,0,0,0,0,0,0,2,1,1,0,0,0,東京都/台東区/谷中/二丁目,139.76459,35.72228
台東区谷中３丁目,16,0,0,0,0,0,0,0,0,0,0,0,0,0,0,0,0,0,0,8,0,0,2,1,1,0,0,0,0,2,2,8,2,2,0,0,4,東京都/台東区/谷中/三丁目,139.76541,35.72691
台東区谷中４丁目,1,0,0,0,0,0,0,0,0,0,0,0,0,0,0,0,0,0,0,0,0,0,0,0,0,0,0,0,0,0,0,1,0,0,0,0,1,東京都/台東区/谷中/四丁目,139.76711,35.72264
台東区谷中５丁目,6,0,0,0,0,0,0,0,0,0,0,0,0,0,0,0,0,0,0,4,0,0,3,0,0,0,0,0,0,0,1,2,0,0,0,0,2,東京都/台東区/谷中/五丁目,139.7673,35.72551
台東区谷中６丁目,4,0,0,0,0,0,0,0,0,0,0,0,0,0,0,0,0,0,0,3,0,0,2,0,0,0,0,0,0,1,0,1,0,0,0,0,1,東京都/台東区/谷中/六丁目,139.76953,35.72213
台東区谷中７丁目,10,0,0,0,0,0,0,0,0,0,0,0,0,0,0,0,0,0,0,6,0,0,3,0,0,0,0,0,0,0,3,4,1,0,1,0,2,東京都/台東区/谷中/七丁目,139.77122,35.72519
墨田区両国１丁目,7,0,0,0,1,0,1,0,0,0,0,0,0,0,0,0,0,0,0,2,0,0,1,0,0,1,0,0,0,0,0,4,1,1,0,0,2,東京都/墨田区/両国/一丁目,139.78986,35.69411
墨田区両国２丁目,13,0,0,0,1,0,0,1,0,0,1,0,0,0,1,0,0,0,0,8,0,0,7,0,0,0,0,0,0,0,1,3,1,0,0,0,2,東京都/墨田区/両国/二丁目,139.79211,35.69389
墨田区両国３丁目,22,0,0,0,1,0,0,1,0,0,0,0,0,0,0,0,0,0,0,14,0,1,6,0,0,1,0,0,0,0,6,7,2,1,0,0,4,東京都/墨田区/両国/三丁目,139.79401,35.6938
墨田区両国４丁目,21,0,0,0,3,0,2,0,1,0,0,0,0,0,0,0,0,0,0,15,0,0,10,1,0,0,0,0,0,0,4,3,1,0,0,0,2,東京都/墨田区/両国/四丁目,139.79622,35.6939
墨田区千歳１丁目,5,0,0,0,0,0,0,0,0,0,0,0,0,0,0,0,0,0,0,4,0,0,0,0,0,0,0,0,0,0,4,1,1,0,0,0,0,東京都/墨田区/千歳/一丁目,139.79121,35.6909
墨田区千歳２丁目,9,0,0,0,0,0,0,0,0,0,0,0,0,0,0,0,0,0,0,8,0,0,6,1,0,0,0,0,0,0,1,1,1,0,0,0,0,東京都/墨田区/千歳/二丁目,139.79462,35.69082
墨田区千歳３丁目,9,0,0,0,0,0,0,0,0,0,0,0,0,0,0,0,0,0,0,6,0,2,1,0,0,1,0,0,0,0,2,3,2,0,0,0,1,東京都/墨田区/千歳/三丁目,139.79698,35.69042
墨田区緑１丁目,17,0,0,0,1,0,0,1,0,0,1,0,0,0,1,0,0,0,0,8,0,0,3,0,0,2,0,0,0,0,3,7,2,0,1,0,4,東京都/墨田区/緑/一丁目,139.799,35.69409
墨田区緑２丁目,14,0,0,0,0,0,0,0,0,0,2,0,0,0,1,0,0,0,1,9,0,0,8,0,0,0,0,0,0,1,0,3,1,0,0,0,2,東京都/墨田区/緑/二丁目,139.80165,35.69412
墨田区緑３丁目,9,0,0,0,0,0,0,0,0,0,0,0,0,0,0,0,0,0,0,8,1,0,7,0,0,0,0,0,0,0,0,1,0,0,0,0,1,東京都/墨田区/緑/三丁目,139.80423,35.69448
墨田区緑４丁目,17,0,0,0,0,0,0,0,0,0,0,0,0,0,0,0,0,0,0,13,0,0,11,1,0,0,0,0,0,0,1,4,4,0,0,0,0,東京都/墨田区/緑/四丁目,139.80719,35.69448
墨田区立川１丁目,10,0,0,0,1,0,0,1,0,0,0,0,0,0,0,0,0,0,0,7,0,0,6,0,0,0,0,0,0,0,1,2,0,0,0,0,2,東京都/墨田区/立川/一丁目,139.79926,35.69081
墨田区立川２丁目,2,0,0,0,0,0,0,0,0,0,0,0,0,0,0,0,0,0,0,1,0,0,1,0,0,0,0,0,0,0,0,1,0,0,0,0,1,東京都/墨田区/立川/二丁目,139.80185,35.69131
墨田区立川３丁目,4,0,0,0,0,0,0,0,0,0,0,0,0,0,0,0,0,0,0,2,0,0,0,0,0,2,0,0,0,0,0,2,0,0,0,0,2,東京都/墨田区/立川/三丁目,139.80447,35.69129
墨田区立川４丁目,11,0,0,0,0,0,0,0,0,0,0,0,0,0,0,0,0,0,0,9,0,0,3,1,0,2,0,0,0,1,2,2,1,0,0,0,1,東京都/墨田区/立川/四丁目,139.80743,35.69148
墨田区菊川１丁目,14,0,0,0,0,0,0,0,0,0,1,0,0,0,0,0,0,0,1,9,0,0,2,0,1,2,0,0,0,2,2,4,0,1,0,0,3,東京都/墨田区/菊川/一丁目,139.80159,35.68929
墨田区菊川２丁目,21,0,0,0,0,0,0,0,0,0,2,1,0,0,1,0,0,0,0,15,0,0,9,0,0,1,0,0,0,2,3,4,0,0,0,0,4,東京都/墨田区/菊川/二丁目,139.80511,35.68896
墨田区菊川３丁目,12,0,0,0,1,0,1,0,0,0,0,0,0,0,0,0,0,0,0,8,0,0,7,0,0,0,0,0,0,0,1,3,1,2,0,0,0,東京都/墨田区/菊川/三丁目,139.80775,35.68854
墨田区江東橋１丁目,19,0,0,0,2,0,1,1,0,0,0,0,0,0,0,0,0,0,0,12,0,0,9,0,0,0,0,0,0,1,2,5,0,2,0,0,3,東京都/墨田区/江東橋/一丁目,139.81,35.69458
墨田区江東橋２丁目,37,1,0,1,6,0,2,2,2,0,1,0,0,0,1,0,0,0,0,20,0,0,7,1,0,0,0,0,0,0,12,9,1,1,2,0,5,東京都/墨田区/江東橋/二丁目,139.8121,35.69483
墨田区江東橋３丁目,242,7,1,6,31,0,16,14,0,1,1,0,0,0,1,0,0,0,0,149,0,0,38,3,0,0,9,1,5,47,46,54,18,5,4,1,26,東京都/墨田区/江東橋/三丁目,139.81409,35.69465
墨田区江東橋４丁目,133,3,1,2,12,0,4,6,2,0,5,0,0,1,4,0,0,0,0,92,0,1,29,1,1,0,0,0,1,44,15,21,8,1,1,0,11,東京都/墨田区/江東橋/四丁目,139.81737,35.69501
墨田区江東橋５丁目,9,0,0,0,1,0,1,0,0,0,0,0,0,0,0,0,0,0,0,5,0,0,2,1,0,2,0,0,0,0,0,3,0,0,0,0,3,東京都/墨田区/江東橋/五丁目,139.81039,35.69072
墨田区横網１丁目,39,1,1,0,6,0,3,3,0,0,0,0,0,0,0,0,0,0,0,23,0,0,5,0,0,1,6,0,1,0,10,9,0,3,0,0,6,東京都/墨田区/横網/一丁目,139.79408,35.69761
墨田区横網２丁目,16,1,0,1,1,0,1,0,0,0,2,0,0,1,0,0,0,0,1,11,0,0,5,0,0,0,0,0,0,2,4,1,0,0,0,0,1,東京都/墨田区/横網/二丁目,139.79503,35.70042
墨田区亀沢１丁目,13,1,0,1,0,0,0,0,0,0,0,0,0,0,0,0,0,0,0,8,0,0,6,0,0,0,0,0,0,0,2,4,3,0,0,0,1,東京都/墨田区/亀沢/一丁目,139.79875,35.69729
墨田区亀沢２丁目,15,0,0,0,0,0,0,0,0,0,0,0,0,0,0,0,0,0,0,10,0,1,4,2,0,0,0,0,0,2,1,5,3,1,0,0,1,東京都/墨田区/亀沢/二丁目,139.80142,35.69745
墨田区亀沢３丁目,10,0,0,0,0,0,0,0,0,0,1,0,0,0,1,0,0,0,0,7,0,0,6,0,0,0,0,0,0,0,1,2,0,0,0,0,2,東京都/墨田区/亀沢/三丁目,139.80399,35.69759
墨田区亀沢４丁目,15,0,0,0,0,0,0,0,0,0,0,0,0,0,0,0,0,0,0,11,0,0,6,1,0,1,0,0,0,1,2,4,2,0,0,0,2,東京都/墨田区/亀沢/四丁目,139.8069,35.69774
墨田区石原１丁目,14,1,0,1,1,0,0,1,0,0,0,0,0,0,0,0,0,0,0,9,0,0,2,1,0,3,0,0,1,0,2,3,1,0,0,0,2,東京都/墨田区/石原/一丁目,139.79852,35.70033
墨田区石原２丁目,12,0,0,0,0,0,0,0,0,0,0,0,0,0,0,0,0,0,0,11,0,0,8,1,0,0,0,0,0,0,2,1,0,0,0,0,1,東京都/墨田区/石原/二丁目,139.8015,35.70026
墨田区石原３丁目,14,0,0,0,1,0,1,0,0,0,1,0,0,0,1,0,0,0,0,11,0,0,9,0,0,0,0,0,0,0,2,1,0,0,0,0,1,東京都/墨田区/石原/三丁目,139.80377,35.70049
墨田区石原４丁目,18,0,0,0,1,0,1,0,0,0,0,0,0,0,0,0,0,0,0,13,0,0,4,4,0,3,0,0,0,1,1,4,0,1,0,0,3,東京都/墨田区/石原/四丁目,139.80667,35.70069
墨田区本所１丁目,12,0,0,0,1,0,1,0,0,0,2,0,0,0,0,0,0,0,2,7,0,0,3,0,0,2,0,1,0,0,1,2,0,0,0,0,2,東京都/墨田区/本所/一丁目,139.79727,35.70374
墨田区本所２丁目,8,0,0,0,0,0,0,0,0,0,0,0,0,0,0,0,0,0,0,8,0,0,4,1,0,2,0,0,0,0,1,0,0,0,0,0,0,東京都/墨田区/本所/二丁目,139.8011,35.70362
墨田区本所４丁目,9,0,0,0,0,0,0,0,0,0,1,0,0,0,1,0,0,0,0,6,0,0,3,1,0,0,0,0,0,0,2,2,2,0,0,0,0,東京都/墨田区/本所/四丁目,139.80641,35.70392
墨田区東駒形１丁目,15,0,0,0,0,0,0,0,0,0,0,0,0,0,0,0,0,0,0,12,0,0,6,1,0,3,0,0,0,0,2,3,0,0,0,0,3,東京都/墨田区/東駒形/一丁目,139.79828,35.70619
墨田区東駒形２丁目,10,0,0,0,0,0,0,0,0,0,0,0,0,0,0,0,0,0,0,7,0,0,5,0,0,0,0,0,0,1,1,3,0,0,0,0,3,東京都/墨田区/東駒形/二丁目,139.80093,35.70642
墨田区東駒形３丁目,19,0,0,0,1,0,1,0,0,0,0,0,0,0,0,0,0,0,0,7,0,0,6,0,0,0,0,0,0,0,1,11,0,0,0,0,11,東京都/墨田区/東駒形/三丁目,139.80309,35.70667
墨田区東駒形４丁目,8,0,0,0,1,0,1,0,0,0,1,0,0,0,0,0,0,0,1,6,0,0,3,0,0,0,0,0,0,0,3,0,0,0,0,0,0,東京都/墨田区/東駒形/四丁目,139.80615,35.70692
墨田区吾妻橋１丁目,23,0,0,0,0,0,0,0,0,0,0,0,0,0,0,0,0,0,0,17,0,0,10,0,0,0,1,0,1,0,5,6,1,2,3,0,0,東京都/墨田区/吾妻橋/一丁目,139.8004,35.70968
墨田区吾妻橋２丁目,7,0,0,0,0,0,0,0,0,0,0,0,0,0,0,0,0,0,0,7,0,0,2,0,0,0,0,0,0,0,5,0,0,0,0,0,0,東京都/墨田区/吾妻橋/二丁目,139.80318,35.70958
墨田区吾妻橋３丁目,13,0,0,0,2,0,2,0,0,0,0,0,0,0,0,0,0,0,0,8,0,0,3,2,0,0,0,0,0,3,0,3,0,2,0,0,1,東京都/墨田区/吾妻橋/三丁目,139.80594,35.70932
墨田区錦糸１丁目,37,0,0,0,0,0,0,0,0,0,0,0,0,0,0,0,0,0,0,32,0,0,12,2,0,0,1,0,0,11,6,5,1,1,0,0,3,東京都/墨田区/錦糸/一丁目,139.81023,35.69791
墨田区錦糸２丁目,87,1,0,1,1,0,0,1,0,0,1,0,0,0,1,0,0,0,0,81,0,0,19,0,0,0,1,0,1,53,7,3,0,0,0,0,3,東京都/墨田区/錦糸/二丁目,139.81264,35.69839
墨田区錦糸３丁目,37,0,0,0,3,0,3,0,0,0,0,0,0,0,0,0,0,0,0,29,0,0,19,3,0,0,1,0,1,1,4,5,1,2,0,0,2,東京都/墨田区/錦糸/三丁目,139.81416,35.69848
墨田区錦糸４丁目,85,0,0,0,4,0,3,1,0,0,0,0,0,0,0,0,0,0,0,70,0,0,47,1,0,0,1,0,3,0,18,11,2,5,0,0,4,東京都/墨田区/錦糸/四丁目,139.81717,35.6986
墨田区太平１丁目,12,0,0,0,0,0,0,0,0,0,1,0,0,1,0,0,0,0,0,7,0,0,3,0,0,0,0,0,0,3,1,4,1,1,0,0,2,東京都/墨田区/太平/一丁目,139.81,35.70094
墨田区太平２丁目,11,0,0,0,0,0,0,0,0,0,1,0,0,1,0,0,0,0,0,7,0,0,3,2,0,0,0,0,0,0,2,3,1,0,0,0,2,東京都/墨田区/太平/二丁目,139.81241,35.70108
墨田区太平３丁目,20,0,0,0,2,0,0,2,0,0,1,0,0,0,1,0,0,0,0,17,0,1,3,0,0,0,0,0,0,10,3,0,0,0,0,0,0,東京都/墨田区/太平/三丁目,139.81409,35.70092
墨田区太平４丁目,47,0,0,0,1,0,1,0,0,0,0,0,0,0,0,0,0,0,0,43,0,1,14,1,0,0,0,0,2,16,9,3,1,0,1,0,1,東京都/墨田区/太平/四丁目,139.81691,35.70144
墨田区横川１丁目,14,0,0,0,0,0,0,0,0,0,1,0,0,0,0,0,0,0,1,8,0,0,6,1,0,0,0,0,0,0,1,5,1,0,0,0,4,東京都/墨田区/横川/一丁目,139.80974,35.70451
墨田区横川２丁目,8,0,0,0,1,0,0,1,0,0,0,0,0,0,0,0,0,0,0,4,0,0,4,0,0,0,0,0,0,0,0,3,0,0,0,0,3,東京都/墨田区/横川/二丁目,139.81216,35.70443
墨田区横川３丁目,9,0,0,0,2,0,0,1,1,0,0,0,0,0,0,0,0,0,0,5,0,0,3,1,0,0,0,0,0,0,1,2,0,0,0,0,2,東京都/墨田区/横川/三丁目,139.81364,35.70413
墨田区横川４丁目,10,0,0,0,1,0,1,0,0,0,0,0,0,0,0,0,0,0,0,6,0,0,5,0,0,0,0,0,0,0,1,3,0,0,1,0,2,東京都/墨田区/横川/四丁目,139.81526,35.70419
墨田区横川５丁目,13,0,0,0,1,0,0,1,0,0,0,0,0,0,0,0,0,0,0,9,0,0,7,0,0,0,0,0,0,1,1,3,0,0,0,0,3,東京都/墨田区/横川/五丁目,139.81755,35.7044
墨田区業平１丁目,17,0,0,0,0,0,0,0,0,0,1,1,0,0,0,0,0,0,0,13,0,1,7,0,0,1,0,0,0,1,3,3,1,0,0,0,2,東京都/墨田区/業平/一丁目,139.80949,35.70794
墨田区業平２丁目,8,0,0,0,0,0,0,0,0,0,1,1,0,0,0,0,0,0,0,5,0,0,3,0,0,0,0,0,0,1,1,2,1,0,0,0,1,東京都/墨田区/業平/二丁目,139.81192,35.70754
墨田区業平３丁目,16,0,0,0,0,0,0,0,0,0,0,0,0,0,0,0,0,0,0,13,0,0,8,0,0,0,0,0,0,0,5,3,1,0,0,0,2,東京都/墨田区/業平/三丁目,139.81331,35.70749
墨田区業平４丁目,18,0,0,0,1,0,0,0,0,1,1,0,0,0,0,1,0,0,0,12,0,1,9,0,0,0,0,0,0,0,2,4,1,3,0,0,0,東京都/墨田区/業平/四丁目,139.81494,35.70757
墨田区業平５丁目,7,0,0,0,2,0,1,1,0,0,0,0,0,0,0,0,0,0,0,3,0,0,0,0,0,0,0,0,0,0,3,2,1,0,0,0,1,東京都/墨田区/業平/五丁目,139.81731,35.7074
墨田区向島１丁目,24,0,0,0,2,0,1,1,0,0,1,0,0,0,0,0,0,0,1,17,0,0,11,0,0,1,1,0,1,0,3,4,0,1,0,0,3,東京都/墨田区/向島/一丁目,139.80461,35.71177
墨田区向島２丁目,16,0,0,0,1,0,0,0,1,0,0,0,0,0,0,0,0,0,0,11,0,0,7,2,0,0,0,0,1,1,0,4,0,0,0,0,4,東京都/墨田区/向島/二丁目,139.80682,35.71515
墨田区向島３丁目,28,0,0,0,1,0,0,1,0,0,1,0,0,0,1,0,0,0,0,16,0,0,10,0,0,0,0,0,0,1,5,10,4,0,0,0,6,東京都/墨田区/向島/三丁目,139.80933,35.71332
墨田区向島４丁目,15,0,0,0,1,0,0,1,0,0,0,0,0,0,0,0,0,0,0,11,0,0,5,0,0,0,0,0,0,4,2,3,1,0,0,0,2,東京都/墨田区/向島/四丁目,139.81288,35.71568
墨田区向島５丁目,11,0,0,0,0,0,0,0,0,0,1,0,0,0,0,0,1,0,0,7,0,0,4,0,0,1,0,0,0,0,2,3,1,1,0,0,1,東京都/墨田区/向島/五丁目,139.81026,35.71899
墨田区東向島１丁目,17,0,0,0,0,0,0,0,0,0,1,0,0,0,1,0,0,0,0,12,0,0,7,0,0,0,0,0,0,4,1,4,0,0,0,0,4,東京都/墨田区/東向島/一丁目,139.81386,35.72098
墨田区東向島２丁目,60,0,0,0,4,0,3,0,1,0,3,0,0,0,2,0,0,0,1,42,0,0,30,3,0,0,0,0,1,6,2,11,3,1,0,0,7,東京都/墨田区/東向島/二丁目,139.81662,35.71894
墨田区東向島３丁目,20,0,0,0,2,0,2,0,0,0,1,0,1,0,0,0,0,0,0,13,0,0,10,0,0,1,0,0,0,1,1,4,0,0,0,0,4,東京都/墨田区/東向島/三丁目,139.81487,35.72408
墨田区東向島４丁目,31,1,0,1,1,0,1,0,0,0,0,0,0,0,0,0,0,0,0,19,0,0,12,0,0,0,0,0,0,4,3,10,2,1,1,0,6,東京都/墨田区/東向島/四丁目,139.8176,35.72535
墨田区東向島５丁目,24,0,0,0,2,0,1,1,0,0,1,0,0,0,0,1,0,0,0,16,0,0,9,1,0,2,0,0,0,0,4,5,1,2,0,0,2,東京都/墨田区/東向島/五丁目,139.82155,35.72683
墨田区東向島６丁目,21,2,0,2,4,0,4,0,0,0,0,0,0,0,0,0,0,0,0,10,0,0,7,0,0,0,0,0,0,0,3,5,0,2,0,0,3,東京都/墨田区/東向島/六丁目,139.82224,35.72445
墨田区堤通１丁目,19,0,0,0,0,0,0,0,0,0,2,1,0,0,0,0,1,0,0,14,0,0,7,2,0,1,0,0,0,1,3,3,1,0,0,0,2,東京都/墨田区/堤通/一丁目,139.81125,35.7248
墨田区墨田１丁目,16,0,0,0,2,0,1,1,0,0,0,0,0,0,0,0,0,0,0,11,0,0,8,0,0,0,0,0,0,1,2,3,0,0,0,0,3,東京都/墨田区/墨田/一丁目,139.81642,35.72856
墨田区墨田２丁目,26,0,0,0,3,0,2,1,0,0,1,0,0,1,0,0,0,0,0,15,0,0,6,2,0,0,0,0,0,3,4,7,1,0,1,0,5,東京都/墨田区/墨田/二丁目,139.81699,35.7316
墨田区墨田３丁目,20,0,0,0,2,0,0,2,0,0,1,0,0,0,0,0,0,0,1,14,0,1,10,0,0,0,0,0,0,0,3,3,1,0,0,0,2,東京都/墨田区/墨田/三丁目,139.82101,35.73013
墨田区墨田４丁目,18,0,0,0,1,0,1,0,0,0,1,0,0,0,0,0,1,0,0,11,0,0,3,1,0,1,0,0,0,1,5,5,1,0,0,0,4,東京都/墨田区/墨田/四丁目,139.82388,35.73316
墨田区墨田５丁目,18,0,0,0,1,0,0,0,1,0,0,0,0,0,0,0,0,0,0,7,0,0,2,0,0,0,0,0,0,0,5,10,1,0,0,0,9,東京都/墨田区/墨田/五丁目,139.82034,35.7383
墨田区押上１丁目,126,0,0,0,3,0,2,1,0,0,2,0,0,1,0,0,0,1,0,111,0,0,36,0,0,2,6,0,4,45,18,10,3,2,0,0,5,東京都/墨田区/押上/一丁目,139.81383,35.71078
墨田区押上２丁目,29,1,1,0,1,0,0,1,0,0,1,0,0,0,0,0,0,0,1,22,0,0,12,2,0,0,0,0,0,6,2,4,0,1,0,0,3,東京都/墨田区/押上/二丁目,139.81445,35.7136
墨田区押上３丁目,17,0,0,0,1,0,1,0,0,0,1,0,0,0,1,0,0,0,0,11,0,0,9,0,0,0,0,0,0,1,1,4,1,1,0,0,2,東京都/墨田区/押上/三丁目,139.81966,35.7119
墨田区京島１丁目,74,1,1,0,6,0,4,2,0,0,0,0,0,0,0,0,0,0,0,57,0,0,22,4,0,0,0,0,0,22,9,10,3,0,0,0,7,東京都/墨田区/京島/一丁目,139.81969,35.71705
墨田区京島２丁目,7,0,0,0,0,0,0,0,0,0,0,0,0,0,0,0,0,0,0,4,0,0,3,0,0,0,0,0,0,1,0,3,0,0,0,0,3,東京都/墨田区/京島/二丁目,139.82034,35.71363
墨田区京島３丁目,24,0,0,0,2,0,2,0,0,0,1,0,0,0,0,0,0,0,1,16,0,0,12,1,0,0,0,0,0,2,1,5,1,0,0,0,4,東京都/墨田区/京島/三丁目,139.82344,35.71464
墨田区文花１丁目,43,0,0,0,0,0,0,0,0,0,1,0,0,0,0,0,0,0,1,36,0,0,25,1,0,0,0,0,0,5,5,6,1,1,0,0,4,東京都/墨田区/文花/一丁目,139.82187,35.709
墨田区文花２丁目,11,0,0,0,0,0,0,0,0,0,1,0,0,0,0,1,0,0,0,6,0,0,2,0,0,0,0,0,0,0,4,4,0,0,0,0,4,東京都/墨田区/文花/二丁目,139.82637,35.70843
墨田区文花３丁目,11,0,0,0,0,0,0,0,0,0,0,0,0,0,0,0,0,0,0,6,0,0,4,0,1,0,0,0,0,0,1,5,1,0,0,0,4,東京都/墨田区/文花/三丁目,139.8262,35.71168
墨田区八広１丁目,9,0,0,0,0,0,0,0,0,0,0,0,0,0,0,0,0,0,0,8,0,0,5,1,0,0,0,0,0,1,1,1,0,0,0,0,1,東京都/墨田区/八広/一丁目,139.82304,35.72001
墨田区八広２丁目,19,0,0,0,0,0,0,0,0,0,2,0,0,0,1,0,0,0,1,16,0,0,13,1,0,0,0,0,0,1,1,1,1,0,0,0,0,東京都/墨田区/八広/二丁目,139.82683,35.71557
墨田区八広３丁目,18,0,0,0,4,0,3,1,0,0,4,0,0,2,0,2,0,0,0,9,0,1,5,0,0,0,0,0,0,0,3,1,0,0,0,0,1,東京都/墨田区/八広/三丁目,139.82748,35.71915
墨田区八広４丁目,20,0,0,0,3,0,1,1,0,1,0,0,0,0,0,0,0,0,0,14,0,2,5,4,0,0,0,0,0,2,1,3,0,1,0,0,2,東京都/墨田区/八広/四丁目,139.82889,35.72306
墨田区八広５丁目,20,0,0,0,1,0,0,1,0,0,2,0,0,2,0,0,0,0,0,12,0,0,8,0,0,0,0,0,0,1,3,5,2,1,0,0,2,東京都/墨田区/八広/五丁目,139.82585,35.72485
墨田区八広６丁目,21,1,0,1,3,0,1,2,0,0,0,0,0,0,0,0,0,0,0,8,0,0,7,0,0,1,0,0,0,0,0,9,0,1,0,0,8,東京都/墨田区/八広/六丁目,139.82979,35.72751
墨田区立花１丁目,26,0,0,0,1,0,1,0,0,0,0,0,0,0,0,0,0,0,0,19,0,2,11,0,0,0,0,0,0,0,6,6,1,0,0,0,5,東京都/墨田区/立花/一丁目,139.8291,35.70522
墨田区立花２丁目,6,0,0,0,0,0,0,0,0,0,0,0,0,0,0,0,0,0,0,5,0,0,0,0,0,0,0,0,0,1,4,1,0,0,0,0,1,東京都/墨田区/立花/二丁目,139.82913,35.70847
墨田区立花３丁目,13,0,0,0,0,0,0,0,0,0,0,0,0,0,0,0,0,0,0,10,0,0,6,3,0,0,0,0,0,1,0,3,2,0,0,0,1,東京都/墨田区/立花/三丁目,139.8335,35.70569
墨田区立花４丁目,19,0,0,0,1,0,0,0,1,0,3,0,3,0,0,0,0,0,0,9,0,0,4,1,0,0,0,0,0,2,2,6,3,0,0,0,3,東京都/墨田区/立花/四丁目,139.8334,35.70912
墨田区立花５丁目,13,0,0,0,1,0,0,1,0,0,0,0,0,0,0,0,0,0,0,9,0,0,6,1,0,1,0,0,0,0,1,3,1,0,0,0,2,東京都/墨田区/立花/五丁目,139.83124,35.71312
墨田区立花６丁目,11,0,0,0,1,0,1,0,0,0,0,0,0,0,0,0,0,0,0,7,0,0,2,1,0,0,0,0,0,0,4,3,1,1,0,0,1,東京都/墨田区/立花/六丁目,139.8362,35.71074
墨田区東墨田１丁目,4,0,0,0,0,0,0,0,0,0,0,0,0,0,0,0,0,0,0,4,1,0,1,1,0,0,0,0,0,1,0,0,0,0,0,0,0,東京都/墨田区/東墨田/一丁目,139.83122,35.71636
墨田区東墨田２丁目,16,0,0,0,1,0,0,1,0,0,2,0,0,0,0,2,0,0,0,11,0,0,2,0,0,1,0,0,0,0,8,2,1,0,0,0,1,東京都/墨田区/東墨田/二丁目,139.83244,35.72227
墨田区東墨田３丁目,6,0,0,0,0,0,0,0,0,0,4,0,0,0,0,0,0,0,4,1,0,0,1,0,0,0,0,0,0,0,0,1,0,0,0,0,1,東京都/墨田区/東墨田/三丁目,139.83688,35.72076
墨田区堤通２丁目,18,0,0,0,3,0,2,1,0,0,1,0,0,0,0,1,0,0,0,14,0,1,10,0,0,0,0,0,1,0,2,0,0,0,0,0,0,東京都/墨田区/堤通/二丁目,139.81467,35.73396
江東区清澄１丁目,2,0,0,0,0,0,0,0,0,0,0,0,0,0,0,0,0,0,0,1,0,0,1,0,0,0,0,0,0,0,0,1,1,0,0,0,0,東京都/江東区/清澄/一丁目,139.79286,35.68163
江東区清澄２丁目,6,0,0,0,0,0,0,0,0,0,0,0,0,0,0,0,0,0,0,5,0,0,3,0,0,0,0,0,0,0,2,1,0,0,0,0,1,東京都/江東区/清澄/二丁目,139.79588,35.68138
江東区清澄３丁目,9,0,0,0,1,0,0,1,0,0,0,0,0,0,0,0,0,0,0,6,0,0,5,0,0,0,0,0,0,0,1,2,1,1,0,0,0,東京都/江東区/清澄/三丁目,139.79797,35.68097
江東区常盤１丁目,1,0,0,0,0,0,0,0,0,0,0,0,0,0,0,0,0,0,0,0,0,0,0,0,0,0,0,0,0,0,0,1,0,0,0,0,1,東京都/江東区/常盤/一丁目,139.79442,35.68487
江東区常盤２丁目,7,0,0,0,0,0,0,0,0,0,2,0,0,1,0,0,0,0,1,4,0,0,2,0,1,1,0,0,0,0,0,1,0,1,0,0,0,東京都/江東区/常盤/二丁目,139.79729,35.68483
江東区新大橋１丁目,2,0,0,0,0,0,0,0,0,0,0,0,0,0,0,0,0,0,0,2,0,0,1,0,0,0,0,0,0,0,1,0,0,0,0,0,0,東京都/江東区/新大橋/一丁目,139.79259,35.68845
江東区新大橋２丁目,7,0,0,0,2,0,1,1,0,0,0,0,0,0,0,0,0,0,0,3,0,0,1,0,0,0,0,0,0,0,2,2,0,0,0,0,2,東京都/江東区/新大橋/二丁目,139.79457,35.68837
江東区新大橋３丁目,6,0,0,0,0,0,0,0,0,0,1,0,0,0,1,0,0,0,0,5,0,0,3,0,1,0,0,0,0,0,1,0,0,0,0,0,0,東京都/江東区/新大橋/三丁目,139.79594,35.6879
江東区森下１丁目,16,0,0,0,3,0,3,0,0,0,0,0,0,0,0,0,0,0,0,10,0,0,4,0,0,0,2,0,0,0,4,3,2,0,0,0,1,東京都/江東区/森下/一丁目,139.79742,35.68752
江東区森下２丁目,15,0,0,0,1,0,0,1,0,0,2,0,0,0,1,0,0,0,1,12,0,0,6,0,0,0,0,0,0,0,6,0,0,0,0,0,0,東京都/江東区/森下/二丁目,139.79919,35.688
江東区森下３丁目,9,2,1,1,0,0,0,0,0,0,0,0,0,0,0,0,0,0,0,4,0,0,4,0,0,0,0,0,0,0,0,3,1,0,0,0,2,東京都/江東区/森下/三丁目,139.80196,35.68628
江東区森下４丁目,14,0,0,0,0,0,0,0,0,0,0,0,0,0,0,0,0,0,0,10,0,0,4,0,0,5,0,0,0,1,0,4,2,0,0,0,2,東京都/江東区/森下/四丁目,139.80486,35.68627
江東区森下５丁目,7,0,0,0,0,0,0,0,0,0,1,0,0,1,0,0,0,0,0,4,1,0,2,1,0,0,0,0,0,0,0,2,0,0,0,0,2,東京都/江東区/森下/五丁目,139.80792,35.68566
江東区平野１丁目,2,0,0,0,0,0,0,0,0,0,0,0,0,0,0,0,0,0,0,2,0,0,1,0,0,0,0,0,0,0,1,0,0,0,0,0,0,東京都/江東区/平野/一丁目,139.79948,35.67826
江東区平野２丁目,4,0,0,0,0,0,0,0,0,0,0,0,0,0,0,0,0,0,0,1,0,0,1,0,0,0,0,0,0,0,0,3,1,1,0,0,1,東京都/江東区/平野/二丁目,139.80258,35.67761
江東区平野３丁目,11,0,0,0,0,0,0,0,0,0,0,0,0,0,0,0,0,0,0,7,0,0,2,0,0,0,0,0,0,1,4,4,3,0,0,0,1,東京都/江東区/平野/三丁目,139.80566,35.67765
江東区平野４丁目,4,0,0,0,0,0,0,0,0,0,0,0,0,0,0,0,0,0,0,2,0,0,2,0,0,0,0,0,0,0,0,2,1,0,0,0,1,東京都/江東区/平野/四丁目,139.80873,35.67782
江東区三好１丁目,5,0,0,0,0,0,0,0,0,0,0,0,0,0,0,0,0,0,0,5,0,0,3,1,0,0,0,0,0,0,1,0,0,0,0,0,0,東京都/江東区/三好/一丁目,139.80011,35.67984
江東区三好２丁目,6,0,0,0,1,0,1,0,0,0,1,0,0,0,0,0,0,1,0,2,0,0,1,0,0,0,0,0,0,0,1,2,2,0,0,0,0,東京都/江東区/三好/二丁目,139.80238,35.67998
江東区三好３丁目,10,0,0,0,0,0,0,0,0,0,0,0,0,0,0,0,0,0,0,7,0,0,5,1,0,0,0,0,0,0,1,3,2,0,0,0,1,東京都/江東区/三好/三丁目,139.80516,35.68009
江東区三好４丁目,4,0,0,0,0,0,0,0,0,0,1,0,0,0,0,0,0,0,1,1,0,0,1,0,0,0,0,0,0,0,0,2,0,0,0,0,2,東京都/江東区/三好/四丁目,139.80849,35.68033
江東区白河１丁目,16,0,0,0,2,0,2,0,0,0,0,0,0,0,0,0,0,0,0,12,0,0,3,0,0,0,1,0,1,3,4,2,1,1,0,0,0,東京都/江東区/白河/一丁目,139.79984,35.68235
江東区白河２丁目,5,0,0,0,0,0,0,0,0,0,0,0,0,0,0,0,0,0,0,2,0,0,0,0,0,0,0,0,0,0,2,3,1,0,0,0,2,東京都/江東区/白河/二丁目,139.80229,35.68255
江東区白河３丁目,9,0,0,0,0,0,0,0,0,0,0,0,0,0,0,0,0,0,0,5,0,0,1,0,0,0,0,0,0,1,3,4,2,0,0,0,2,東京都/江東区/白河/三丁目,139.80507,35.68263
江東区白河４丁目,6,0,0,0,1,0,1,0,0,0,0,0,0,0,0,0,0,0,0,3,0,0,3,0,0,0,0,0,0,0,0,2,2,0,0,0,0,東京都/江東区/白河/四丁目,139.80821,35.68288
江東区高橋,6,0,0,0,1,0,1,0,0,0,0,0,0,0,0,0,0,0,0,4,0,0,0,0,0,0,0,0,1,1,2,1,1,0,0,0,0,東京都/江東区/高橋,139.79955,35.6849
江東区佐賀１丁目,5,0,0,0,0,0,0,0,0,0,0,0,0,0,0,0,0,0,0,3,0,0,0,0,0,2,0,0,0,0,1,2,2,0,0,0,0,東京都/江東区/佐賀/一丁目,139.79021,35.67708
江東区佐賀２丁目,2,0,0,0,0,0,0,0,0,0,0,0,0,0,0,0,0,0,0,2,0,0,2,0,0,0,0,0,0,0,0,0,0,0,0,0,0,東京都/江東区/佐賀/二丁目,139.79153,35.67928
江東区永代１丁目,4,0,0,0,0,0,0,0,0,0,0,0,0,0,0,0,0,0,0,4,0,1,3,0,0,0,0,0,0,0,0,0,0,0,0,0,0,東京都/江東区/永代/一丁目,139.78909,35.67469
江東区永代２丁目,10,0,0,0,2,0,2,0,0,0,0,0,0,0,0,0,0,0,0,4,0,0,2,0,0,0,0,0,0,0,2,4,1,1,1,0,1,東京都/江東区/永代/二丁目,139.79158,35.67355
江東区福住１丁目,9,0,0,0,1,0,1,0,0,0,0,0,0,0,0,0,0,0,0,4,0,0,3,0,0,0,0,0,0,0,1,4,2,0,0,0,2,東京都/江東区/福住/一丁目,139.79338,35.67597
江東区福住２丁目,2,0,0,0,0,0,0,0,0,0,0,0,0,0,0,0,0,0,0,1,0,0,0,0,0,0,0,0,0,0,1,1,1,0,0,0,0,東京都/江東区/福住/二丁目,139.79401,35.67823
江東区深川１丁目,7,0,0,0,0,0,0,0,0,0,0,0,0,0,0,0,0,0,0,6,0,0,2,0,0,0,0,0,0,1,3,1,0,0,0,0,1,東京都/江東区/深川/一丁目,139.79562,35.67652
江東区深川２丁目,8,0,0,0,0,0,0,0,0,0,0,0,0,0,0,0,0,0,0,7,0,1,5,0,0,0,0,0,0,0,1,1,1,0,0,0,0,東京都/江東区/深川/二丁目,139.79791,35.67565
江東区冬木,12,0,0,0,1,0,0,1,0,0,0,0,0,0,0,0,0,0,0,11,0,0,8,0,0,0,0,0,0,0,3,0,0,0,0,0,0,東京都/江東区/冬木,139.80142,35.67479
江東区門前仲町１丁目,25,0,0,0,6,0,4,1,0,1,0,0,0,0,0,0,0,0,0,15,0,0,6,0,0,0,1,0,0,0,8,4,1,0,0,0,3,東京都/江東区/門前仲町/一丁目,139.79424,35.67323
江東区門前仲町２丁目,34,0,0,0,4,0,1,2,1,0,1,1,0,0,0,0,0,0,0,28,0,0,12,1,0,0,1,0,1,3,10,1,0,1,0,0,0,東京都/江東区/門前仲町/二丁目,139.79578,35.67252
江東区富岡１丁目,48,0,0,0,9,0,5,4,0,0,2,1,0,0,1,0,0,0,0,26,0,0,14,2,0,0,0,0,0,1,9,11,4,1,2,0,4,東京都/江東区/富岡/一丁目,139.7981,35.67146
江東区富岡２丁目,9,0,0,0,2,0,1,1,0,0,0,0,0,0,0,0,0,0,0,4,0,0,1,0,0,0,0,0,0,2,1,3,2,0,0,0,1,東京都/江東区/富岡/二丁目,139.80145,35.671
江東区牡丹１丁目,3,0,0,0,0,0,0,0,0,0,0,0,0,0,0,0,0,0,0,3,0,0,1,0,0,0,0,0,0,1,1,0,0,0,0,0,0,東京都/江東区/牡丹/一丁目,139.7939,35.67055
江東区牡丹２丁目,5,2,0,2,0,0,0,0,0,0,0,0,0,0,0,0,0,0,0,2,0,0,1,0,0,0,0,0,0,1,0,1,1,0,0,0,0,東京都/江東区/牡丹/二丁目,139.79601,35.67012
江東区牡丹３丁目,9,0,0,0,0,0,0,0,0,0,0,0,0,0,0,0,0,0,0,8,0,0,4,0,0,0,0,0,0,2,2,1,1,0,0,0,0,東京都/江東区/牡丹/三丁目,139.79948,35.66882
江東区古石場１丁目,5,0,0,0,0,0,0,0,0,0,0,0,0,0,0,0,0,0,0,4,0,0,4,0,0,0,0,0,0,0,0,1,1,0,0,0,0,東京都/江東区/古石場/一丁目,139.79506,35.66886
江東区古石場２丁目,8,1,0,1,1,0,0,1,0,0,0,0,0,0,0,0,0,0,0,5,0,0,1,1,0,2,0,0,0,0,1,1,0,0,0,0,1,東京都/江東区/古石場/二丁目,139.7989,35.66704
江東区古石場３丁目,2,0,0,0,0,0,0,0,0,0,0,0,0,0,0,0,0,0,0,2,0,0,2,0,0,0,0,0,0,0,0,0,0,0,0,0,0,東京都/江東区/古石場/三丁目,139.80136,35.66623
江東区越中島１丁目,6,0,0,0,0,0,0,0,0,0,0,0,0,0,0,0,0,0,0,5,0,0,3,0,0,0,0,0,0,0,2,1,1,0,0,0,0,東京都/江東区/越中島/一丁目,139.79028,35.67072
江東区越中島２丁目,19,0,0,0,0,0,0,0,0,0,1,0,0,0,0,1,0,0,0,11,0,0,6,0,0,0,0,0,0,0,5,7,0,0,0,0,7,東京都/江東区/越中島/二丁目,139.79247,35.66647
江東区越中島３丁目,9,0,0,0,0,0,0,0,0,0,0,0,0,0,0,0,0,0,0,6,0,0,2,1,0,0,0,0,0,0,3,3,2,0,0,0,1,東京都/江東区/越中島/三丁目,139.79839,35.66433
江東区塩浜１丁目,14,0,0,0,2,0,2,0,0,0,0,0,0,0,0,0,0,0,0,7,0,0,5,0,0,0,0,0,0,1,1,5,3,0,0,0,2,東京都/江東区/塩浜/一丁目,139.80002,35.66128
江東区塩浜２丁目,46,1,0,1,4,0,2,2,0,0,0,0,0,0,0,0,0,0,0,28,0,0,21,0,0,0,0,0,0,1,6,13,1,1,0,0,11,東京都/江東区/塩浜/二丁目,139.81166,35.66288
江東区枝川１丁目,19,0,0,0,2,0,2,0,0,0,0,0,0,0,0,0,0,0,0,10,0,0,4,1,0,0,0,0,0,0,5,7,2,0,0,0,5,東京都/江東区/枝川/一丁目,139.80344,35.65662
江東区枝川２丁目,13,0,0,0,1,0,0,1,0,0,4,0,0,0,4,0,0,0,0,6,0,0,3,0,0,0,0,0,0,0,3,2,1,0,0,0,1,東京都/江東区/枝川/二丁目,139.80717,35.65771
江東区枝川３丁目,10,0,0,0,0,0,0,0,0,0,0,0,0,0,0,0,0,0,0,4,0,0,3,0,0,0,0,0,0,0,1,6,2,2,0,0,2,東京都/江東区/枝川/三丁目,139.81061,35.659
江東区豊洲１丁目,19,0,0,0,2,0,0,2,0,0,2,0,0,0,2,0,0,0,0,10,0,0,4,0,0,0,0,0,0,1,5,5,0,0,0,0,5,東京都/江東区/豊洲/一丁目,139.79204,35.66181
江東区豊洲２丁目,63,0,0,0,6,0,4,1,0,1,0,0,0,0,0,0,0,0,0,49,0,0,11,3,0,2,1,0,0,15,17,8,1,2,0,0,5,東京都/江東区/豊洲/二丁目,139.79277,35.65527
江東区豊洲３丁目,48,0,0,0,2,0,1,1,0,0,0,0,0,0,0,0,0,0,0,33,0,0,8,1,0,0,0,0,1,14,9,13,6,1,0,0,6,東京都/江東区/豊洲/三丁目,139.79692,35.65894
江東区豊洲４丁目,34,0,0,0,6,0,4,2,0,0,0,0,0,0,0,0,0,0,0,23,0,0,7,1,0,0,1,0,0,8,6,5,2,0,0,0,3,東京都/江東区/豊洲/四丁目,139.80066,35.6538
江東区豊洲５丁目,27,0,0,0,1,0,0,0,1,0,0,0,0,0,0,0,0,0,0,22,0,0,16,0,0,0,0,0,0,1,5,4,2,0,1,0,1,東京都/江東区/豊洲/五丁目,139.79648,35.6511
江東区豊洲６丁目,46,0,0,0,6,0,3,3,0,0,0,0,0,0,0,0,0,0,0,31,0,3,2,1,0,0,2,0,1,2,20,9,1,2,0,0,6,東京都/江東区/豊洲/六丁目,139.78609,35.64668
江東区東雲１丁目,81,1,1,0,5,0,3,1,1,0,1,0,0,0,0,0,0,0,1,51,0,1,21,0,1,0,0,0,2,16,10,23,12,2,2,0,7,東京都/江東区/東雲/一丁目,139.80182,35.64842
江東区東雲２丁目,39,0,0,0,0,0,0,0,0,0,0,0,0,0,0,0,0,0,0,31,0,0,11,2,0,0,0,0,0,10,8,8,2,0,1,0,5,東京都/江東区/東雲/二丁目,139.80235,35.6405
江東区有明１丁目,29,0,0,0,2,0,2,0,0,0,1,0,0,0,0,0,0,0,1,16,0,0,3,0,0,0,0,0,2,2,9,10,5,1,0,0,4,東京都/江東区/有明/一丁目,139.78958,35.64091
江東区有明２丁目,4,0,0,0,0,0,0,0,0,0,0,0,0,0,0,0,0,0,0,4,0,0,1,0,0,1,0,0,0,0,2,0,0,0,0,0,0,東京都/江東区/有明/二丁目,139.78998,35.63632
江東区有明３丁目,91,0,0,0,7,0,4,2,1,0,0,0,0,0,0,0,0,0,0,77,0,0,6,3,0,0,14,0,3,7,44,7,2,4,0,0,1,東京都/江東区/有明/三丁目,139.79668,35.62942
江東区有明４丁目,2,0,0,0,0,0,0,0,0,0,1,0,0,1,0,0,0,0,0,1,0,0,0,0,0,0,0,0,0,0,1,0,0,0,0,0,0,東京都/江東区/有明/四丁目,139.79211,35.6208
江東区辰巳１丁目,53,0,0,0,3,0,3,0,0,0,0,0,0,0,0,0,0,0,0,29,0,1,19,2,0,0,0,0,0,5,2,21,11,0,0,0,10,東京都/江東区/辰巳/一丁目,139.80902,35.64818
江東区辰巳２丁目,10,0,0,0,1,0,0,1,0,0,0,0,0,0,0,0,0,0,0,6,0,0,0,0,0,0,0,0,0,1,5,3,1,1,0,0,1,東京都/江東区/辰巳/二丁目,139.8165,35.65004
江東区辰巳３丁目,7,0,0,0,0,0,0,0,0,0,0,0,0,0,0,0,0,0,0,2,0,1,1,0,0,0,0,0,0,0,0,5,0,1,0,0,4,東京都/江東区/辰巳/三丁目,139.8158,35.64359
江東区潮見１丁目,6,0,0,0,2,0,0,1,1,0,1,0,0,0,0,0,0,0,1,1,0,0,0,0,0,0,0,0,0,0,1,2,1,1,0,0,0,東京都/江東区/潮見/一丁目,139.81136,35.65574
江東区潮見２丁目,21,0,0,0,0,0,0,0,0,0,0,0,0,0,0,0,0,0,0,13,0,0,3,0,0,0,0,0,0,0,10,8,3,1,0,0,4,東京都/江東区/潮見/二丁目,139.81775,35.65808
江東区千石１丁目,4,0,0,0,0,0,0,0,0,0,0,0,0,0,0,0,0,0,0,3,0,0,1,0,0,0,0,0,0,2,0,1,1,0,0,0,0,東京都/江東区/千石/一丁目,139.81247,35.67829
江東区千石２丁目,10,0,0,0,0,0,0,0,0,0,0,0,0,0,0,0,0,0,0,3,0,0,3,0,0,0,0,0,0,0,0,7,0,0,0,0,7,東京都/江東区/千石/二丁目,139.81583,35.678
江東区千石３丁目,4,0,0,0,0,0,0,0,0,0,0,0,0,0,0,0,0,0,0,2,0,0,0,0,0,0,0,0,0,0,2,2,0,1,0,0,1,東京都/江東区/千石/三丁目,139.81873,35.67805
江東区石島,9,0,0,0,1,0,1,0,0,0,0,0,0,0,0,0,0,0,0,6,0,0,3,0,0,0,0,0,1,1,1,2,0,1,0,0,1,東京都/江東区/石島,139.8121,35.68113
江東区千田,10,0,0,0,1,0,0,1,0,0,1,1,0,0,0,0,0,0,0,5,0,0,4,0,1,0,0,0,0,0,0,3,1,0,0,0,2,東京都/江東区/千田,139.81561,35.68116
江東区海辺,6,0,0,0,1,0,1,0,0,0,0,0,0,0,0,0,0,0,0,3,0,0,2,0,0,0,0,0,0,0,1,2,2,0,0,0,0,東京都/江東区/海辺,139.81888,35.68108
江東区扇橋１丁目,11,0,0,0,0,0,0,0,0,0,0,0,0,0,0,0,0,0,0,9,0,0,5,1,0,1,0,0,0,0,2,2,1,0,0,0,1,東京都/江東区/扇橋/一丁目,139.81187,35.68319
江東区扇橋２丁目,13,0,0,0,1,0,1,0,0,0,0,0,0,0,0,0,0,0,0,7,0,0,4,0,0,0,0,0,0,0,3,5,3,1,0,0,1,東京都/江東区/扇橋/二丁目,139.81551,35.6836
江東区扇橋３丁目,7,0,0,0,1,0,0,1,0,0,0,0,0,0,0,0,0,0,0,5,0,0,3,0,1,0,0,0,0,0,1,1,0,0,0,0,1,東京都/江東区/扇橋/三丁目,139.81897,35.68335
江東区猿江１丁目,10,0,0,0,0,0,0,0,0,0,0,0,0,0,0,0,0,0,0,9,0,0,7,0,0,0,0,0,0,0,2,1,0,0,0,0,1,東京都/江東区/猿江/一丁目,139.81169,35.68594
江東区猿江２丁目,14,1,1,0,2,0,0,2,0,0,0,0,0,0,0,0,0,0,0,8,0,0,3,0,0,0,0,0,0,3,2,3,3,0,0,0,0,東京都/江東区/猿江/二丁目,139.81718,35.68612
